{
  "updated_at": "2026-04-17 22:28:44",
  "target_areas": [
    "동탄1동",
    "동탄2동",
    "동탄3동",
    "동탄4동",
    "동탄5동",
    "동탄6동",
    "동탄7동",
    "동탄8동",
    "동탄9동"
  ],
  "target_bags": [
    "소각용 50L",
    "소각용 75L"
  ],
  "total_count": 273,
  "shops": [
    {
      "SHOP_NAME": "GS25 동탄예당점",
      "SAUP_ADDR": "경기도 화성시 동탄반석로 230 (석우동) 상가동 101,102호",
      "SAUP_PHONE": "010-3538-9497",
      "SALE_DATE_FMT": "2026-04-15",
      "SALE_DATE_RAW": "",
      "LAT": 37.208296,
      "LNG": 127.0757765,
      "DONG": "동탄1동",
      "BAG_TYPES": [
        "소각용 50L",
        "소각용 75L"
      ],
      "SALE_DATE": "20260415"
    },
    {
      "SHOP_NAME": "현대지티에스(주)",
      "SAUP_ADDR": "경기도 화성시 삼성1로 231 (석우동)",
      "SAUP_PHONE": "010-5397-4645",
      "SALE_DATE_FMT": "2026-04-15",
      "SALE_DATE_RAW": "",
      "LAT": 37.2237237,
      "LNG": 127.0741695,
      "DONG": "동탄1동",
      "BAG_TYPES": [
        "소각용 50L",
        "소각용 75L"
      ],
      "SALE_DATE": "20260415"
    },
    {
      "SHOP_NAME": "씨유 동탄캐슬점",
      "SAUP_ADDR": "경기도 화성시 삼성1로5길 6 (석우동)",
      "SAUP_PHONE": "010-6261-2374",
      "SALE_DATE_FMT": "2026-04-08",
      "SALE_DATE_RAW": "",
      "LAT": 37.2253915,
      "LNG": 127.0726941,
      "DONG": "동탄1동",
      "BAG_TYPES": [
        "소각용 50L",
        "소각용 75L"
      ],
      "SALE_DATE": "20260408"
    },
    {
      "SHOP_NAME": "GS25 삼성DSR점",
      "SAUP_ADDR": "경기도 화성시 삼성1로5길 5 (석우동) 110호",
      "SAUP_PHONE": "010-9209-4872",
      "SALE_DATE_FMT": "2026-04-15",
      "SALE_DATE_RAW": "",
      "LAT": 37.2249236,
      "LNG": 127.0732753,
      "DONG": "동탄1동",
      "BAG_TYPES": [
        "소각용 50L",
        "소각용 75L"
      ],
      "SALE_DATE": "20260415"
    },
    {
      "SHOP_NAME": "세븐일레븐 동탄석우원룸점",
      "SAUP_ADDR": "경기도 화성시 동학산1길 6-7 (석우동)",
      "SAUP_PHONE": "010-7900-7132",
      "SALE_DATE_FMT": "2026-04-15",
      "SALE_DATE_RAW": "",
      "LAT": 37.2233606,
      "LNG": 127.075576,
      "DONG": "동탄1동",
      "BAG_TYPES": [
        "소각용 50L",
        "소각용 75L"
      ],
      "SALE_DATE": "20260415"
    },
    {
      "SHOP_NAME": "이마트24 동탄리치안점",
      "SAUP_ADDR": "경기도 화성시 삼성전자로 16(석우동) 110호",
      "SAUP_PHONE": "010-8411-0010",
      "SALE_DATE_FMT": "2026-02-11",
      "SALE_DATE_RAW": "",
      "LAT": 37.2189083,
      "LNG": 127.0791991,
      "DONG": "동탄1동",
      "BAG_TYPES": [
        "소각용 50L"
      ],
      "SALE_DATE": "20260211"
    },
    {
      "SHOP_NAME": "GS25 화성석우점",
      "SAUP_ADDR": "경기도 화성시 삼성전자로 12 (석우동) 112호",
      "SAUP_PHONE": "010-2268-2703",
      "SALE_DATE_FMT": "2026-04-15",
      "SALE_DATE_RAW": "",
      "LAT": 37.2187393,
      "LNG": 127.078762,
      "DONG": "동탄1동",
      "BAG_TYPES": [
        "소각용 50L",
        "소각용 75L"
      ],
      "SALE_DATE": "20260415"
    },
    {
      "SHOP_NAME": "세븐일레븐 동탄석우점",
      "SAUP_ADDR": "경기도 화성시 삼성1로 156 (석우동) 1층 107호",
      "SAUP_PHONE": "010-6209-0030",
      "SALE_DATE_FMT": "2026-04-15",
      "SALE_DATE_RAW": "",
      "LAT": 37.2177647,
      "LNG": 127.0781978,
      "DONG": "동탄1동",
      "BAG_TYPES": [
        "소각용 50L",
        "소각용 75L"
      ],
      "SALE_DATE": "20260415"
    },
    {
      "SHOP_NAME": "이마트 동탄점",
      "SAUP_ADDR": "동탄중앙로 376",
      "SAUP_PHONE": "647-1063",
      "SALE_DATE_FMT": "2026-02-25",
      "SALE_DATE_RAW": "",
      "LAT": 37.2143761,
      "LNG": 127.0797233,
      "DONG": "동탄1동",
      "BAG_TYPES": [
        "소각용 50L"
      ],
      "SALE_DATE": "20260225"
    },
    {
      "SHOP_NAME": "세븐일레븐 동탄반송점",
      "SAUP_ADDR": "경기도 화성시 동탄반송1길 36-1(반송동) 101호",
      "SAUP_PHONE": "010-3321-3948",
      "SALE_DATE_FMT": "2026-04-15",
      "SALE_DATE_RAW": "",
      "LAT": 37.2110106,
      "LNG": 127.063131,
      "DONG": "동탄1동",
      "BAG_TYPES": [
        "소각용 50L",
        "소각용 75L"
      ],
      "SALE_DATE": "20260415"
    },
    {
      "SHOP_NAME": "GS25 뉴동탄캐슬점",
      "SAUP_ADDR": "경기도 화성시 동탄반석로 231(석우동, 동탄예당마을 롯데캐슬) 106호",
      "SAUP_PHONE": "010-2086-9723",
      "SALE_DATE_FMT": "2026-04-15",
      "SALE_DATE_RAW": "",
      "LAT": 37.2101559,
      "LNG": 127.0735358,
      "DONG": "동탄1동",
      "BAG_TYPES": [
        "소각용 50L",
        "소각용 75L"
      ],
      "SALE_DATE": "20260415"
    },
    {
      "SHOP_NAME": "GS25 동탄중앙점",
      "SAUP_ADDR": "경기도 화성시 동탄반송2길 31-1 (반송동) 1층",
      "SAUP_PHONE": "010-4929-4714",
      "SALE_DATE_FMT": "2026-03-25",
      "SALE_DATE_RAW": "",
      "LAT": 37.20979,
      "LNG": 127.065234,
      "DONG": "동탄1동",
      "BAG_TYPES": [
        "소각용 50L",
        "소각용 75L"
      ],
      "SALE_DATE": "20260325"
    },
    {
      "SHOP_NAME": "세븐일레븐 화성반송점",
      "SAUP_ADDR": "경기도 화성시 동탄반송3길 30-1 (반송동)",
      "SAUP_PHONE": "010-5188-9577",
      "SALE_DATE_FMT": "2026-04-15",
      "SALE_DATE_RAW": "",
      "LAT": 37.2092736,
      "LNG": 127.0658371,
      "DONG": "동탄1동",
      "BAG_TYPES": [
        "소각용 50L",
        "소각용 75L"
      ],
      "SALE_DATE": "20260415"
    },
    {
      "SHOP_NAME": "씨유 동탄센트럴파크점",
      "SAUP_ADDR": "동탄지성로 102, 1동 108호",
      "SAUP_PHONE": "010-9040-4090",
      "SALE_DATE_FMT": "2026-04-15",
      "SALE_DATE_RAW": "",
      "LAT": 37.2080868,
      "LNG": 127.0641834,
      "DONG": "동탄1동",
      "BAG_TYPES": [
        "소각용 50L",
        "소각용 75L"
      ],
      "SALE_DATE": "20260415"
    },
    {
      "SHOP_NAME": "씨유 동탄르네상스점",
      "SAUP_ADDR": "경기도 화성시 동탄반석로 205(반송동) 지하1층 B3호,B4호",
      "SAUP_PHONE": "010-9072-8282",
      "SALE_DATE_FMT": "2026-03-25",
      "SALE_DATE_RAW": "",
      "LAT": 37.2079211,
      "LNG": 127.0716043,
      "DONG": "동탄1동",
      "BAG_TYPES": [
        "소각용 50L",
        "소각용 75L"
      ],
      "SALE_DATE": "20260325"
    },
    {
      "SHOP_NAME": "GS25 동탄북광장점",
      "SAUP_ADDR": "동탄중심상가2길, 26-15, 103호",
      "SAUP_PHONE": "010-8869-6681",
      "SALE_DATE_FMT": "2026-04-15",
      "SALE_DATE_RAW": "",
      "LAT": 37.2066025,
      "LNG": 127.0742939,
      "DONG": "동탄1동",
      "BAG_TYPES": [
        "소각용 50L",
        "소각용 75L"
      ],
      "SALE_DATE": "20260415"
    },
    {
      "SHOP_NAME": "GS25 동탄아이파크점",
      "SAUP_ADDR": "경기도 화성시 동탄반석로 193 (반송동) 상가동1층 102호",
      "SAUP_PHONE": "010-5530-5179",
      "SALE_DATE_FMT": "2026-04-15",
      "SALE_DATE_RAW": "",
      "LAT": 37.2065591,
      "LNG": 127.0703348,
      "DONG": "동탄1동",
      "BAG_TYPES": [
        "소각용 50L",
        "소각용 75L"
      ],
      "SALE_DATE": "20260415"
    },
    {
      "SHOP_NAME": "푸른화성",
      "SAUP_ADDR": "경기도 화성시 반송동 91-2 로하스애비뉴 401호",
      "SAUP_PHONE": "010-7440-4220",
      "SALE_DATE_FMT": "2026-03-25",
      "SALE_DATE_RAW": "",
      "LAT": 37.2055373,
      "LNG": 127.0726398,
      "DONG": "동탄1동",
      "BAG_TYPES": [
        "소각용 50L",
        "소각용 75L"
      ],
      "SALE_DATE": "20260325"
    },
    {
      "SHOP_NAME": "씨유 동탄스타즈호텔점",
      "SAUP_ADDR": "경기도 화성시 동탄반석로 171 (반송동) 1층 104호",
      "SAUP_PHONE": "010-3400-3916",
      "SALE_DATE_FMT": "2026-04-15",
      "SALE_DATE_RAW": "",
      "LAT": 37.2040699,
      "LNG": 127.0706739,
      "DONG": "동탄1동",
      "BAG_TYPES": [
        "소각용 50L",
        "소각용 75L"
      ],
      "SALE_DATE": "20260415"
    },
    {
      "SHOP_NAME": "세븐일레븐 동탄신영지웰점",
      "SAUP_ADDR": "동탄반석로 160, 지하층 15호",
      "SAUP_PHONE": "010-4805-1730",
      "SALE_DATE_FMT": "2026-04-15",
      "SALE_DATE_RAW": "",
      "LAT": 37.2029312,
      "LNG": 127.071548,
      "DONG": "동탄1동",
      "BAG_TYPES": [
        "소각용 50L",
        "소각용 75L"
      ],
      "SALE_DATE": "20260415"
    },
    {
      "SHOP_NAME": "홈플러스 동탄중앙점",
      "SAUP_ADDR": "경기도 화성시 동탄중앙로 200(반송동, 메타폴리스)",
      "SAUP_PHONE": "010-8647-7994",
      "SALE_DATE_FMT": "2026-03-18",
      "SALE_DATE_RAW": "",
      "LAT": 37.2027941,
      "LNG": 127.0684801,
      "DONG": "동탄1동",
      "BAG_TYPES": [
        "소각용 50L",
        "소각용 75L"
      ],
      "SALE_DATE": "20260318"
    },
    {
      "SHOP_NAME": "씨유 나눔동탄메타폴리스점",
      "SAUP_ADDR": "경기 화성시 동탄중앙로 200, 2층 201호(메타폴리스)",
      "SAUP_PHONE": "010-5517-1673",
      "SALE_DATE_FMT": "2026-04-15",
      "SALE_DATE_RAW": "",
      "LAT": 37.2027941,
      "LNG": 127.0684801,
      "DONG": "동탄1동",
      "BAG_TYPES": [
        "소각용 50L",
        "소각용 75L"
      ],
      "SALE_DATE": "20260415"
    },
    {
      "SHOP_NAME": "씨유 동탄외식타운점",
      "SAUP_ADDR": "경기도 화성시 10용사로 440(반송동) 104,105호",
      "SAUP_PHONE": "010-8995-4606",
      "SALE_DATE_FMT": "2026-04-15",
      "SALE_DATE_RAW": "",
      "LAT": 37.1980598,
      "LNG": 127.0651789,
      "DONG": "동탄1동",
      "BAG_TYPES": [
        "소각용 50L",
        "소각용 75L"
      ],
      "SALE_DATE": "20260415"
    },
    {
      "SHOP_NAME": "GS더프레시 동탄중앙점",
      "SAUP_ADDR": "경기도 화성시 동탄중앙로 78(반송동)",
      "SAUP_PHONE": "010-4624-9367",
      "SALE_DATE_FMT": "2026-04-15",
      "SALE_DATE_RAW": "",
      "LAT": 37.1933145,
      "LNG": 127.0723559,
      "DONG": "동탄1동",
      "BAG_TYPES": [
        "소각용 50L",
        "소각용 75L"
      ],
      "SALE_DATE": "20260415"
    },
    {
      "SHOP_NAME": "세븐일레븐 동탄우남점",
      "SAUP_ADDR": "동탄중앙로 169, 104호",
      "SAUP_PHONE": "010-9608-3083",
      "SALE_DATE_FMT": "2026-03-25",
      "SALE_DATE_RAW": "",
      "LAT": 0.0,
      "LNG": 0.0,
      "DONG": "동탄1동",
      "BAG_TYPES": [
        "소각용 75L"
      ],
      "SALE_DATE": "20260325"
    },
    {
      "SHOP_NAME": "GS더프레시 솔빛나루점",
      "SAUP_ADDR": "경기도 화성시 동탄솔빛로 61 (반송동) 104호",
      "SAUP_PHONE": "010-5179-9099",
      "SALE_DATE_FMT": "2026-04-15",
      "SALE_DATE_RAW": "",
      "LAT": 37.194316,
      "LNG": 127.0737815,
      "DONG": "동탄2동",
      "BAG_TYPES": [
        "소각용 50L",
        "소각용 75L"
      ],
      "SALE_DATE": "20260415"
    },
    {
      "SHOP_NAME": "씨유 화성청솔점",
      "SAUP_ADDR": "경기도 화성시 동탄반송2길 31-13(반송동) 101호",
      "SAUP_PHONE": "010-9147-7499",
      "SALE_DATE_FMT": "2026-04-15",
      "SALE_DATE_RAW": "",
      "LAT": 37.2100138,
      "LNG": 127.0647142,
      "DONG": "동탄2동",
      "BAG_TYPES": [
        "소각용 50L",
        "소각용 75L"
      ],
      "SALE_DATE": "20260415"
    },
    {
      "SHOP_NAME": "GS25 동탄대우점",
      "SAUP_ADDR": "경기도 화성시 노작로 239 (석우동) 상가104호",
      "SAUP_PHONE": "010-2400-7009",
      "SALE_DATE_FMT": "2026-04-15",
      "SALE_DATE_RAW": "",
      "LAT": 37.2098199,
      "LNG": 127.0786979,
      "DONG": "동탄2동",
      "BAG_TYPES": [
        "소각용 50L",
        "소각용 75L"
      ],
      "SALE_DATE": "20260415"
    },
    {
      "SHOP_NAME": "씨유 동탄중앙점",
      "SAUP_ADDR": "동탄중심상가 2길 31,105호",
      "SAUP_PHONE": "010-9505-8880",
      "SALE_DATE_FMT": "2026-04-15",
      "SALE_DATE_RAW": "",
      "LAT": 37.2062812,
      "LNG": 127.0736299,
      "DONG": "동탄2동",
      "BAG_TYPES": [
        "소각용 50L",
        "소각용 75L"
      ],
      "SALE_DATE": "20260415"
    },
    {
      "SHOP_NAME": "GS25 동탄세림점",
      "SAUP_ADDR": "경기도 화성시 동탄중심상가2길 29(반송동) 105호",
      "SAUP_PHONE": "010-3191-9716",
      "SALE_DATE_FMT": "2026-04-15",
      "SALE_DATE_RAW": "",
      "LAT": 37.2061342,
      "LNG": 127.0738934,
      "DONG": "동탄2동",
      "BAG_TYPES": [
        "소각용 50L",
        "소각용 75L"
      ],
      "SALE_DATE": "20260415"
    },
    {
      "SHOP_NAME": "GS25 뉴동탄시티점",
      "SAUP_ADDR": "경기도 화성시 동탄중심상가2길 11 (반송동) 102,103호",
      "SAUP_PHONE": "010-9779-4465",
      "SALE_DATE_FMT": "2026-04-15",
      "SALE_DATE_RAW": "",
      "LAT": 37.2057453,
      "LNG": 127.0732884,
      "DONG": "동탄2동",
      "BAG_TYPES": [
        "소각용 50L",
        "소각용 75L"
      ],
      "SALE_DATE": "20260415"
    },
    {
      "SHOP_NAME": "씨유 동탄북광장점",
      "SAUP_ADDR": "경기도 화성시 동탄중심상가2길 16 (반송동) 1층 104호",
      "SAUP_PHONE": "010-9184-9330",
      "SALE_DATE_FMT": "2026-04-08",
      "SALE_DATE_RAW": "",
      "LAT": 37.2052601,
      "LNG": 127.0733756,
      "DONG": "동탄2동",
      "BAG_TYPES": [
        "소각용 50L",
        "소각용 75L"
      ],
      "SALE_DATE": "20260408"
    },
    {
      "SHOP_NAME": "세븐일레븐 동탄시티점",
      "SAUP_ADDR": "경기도 화성시 반송동 96 메타폴리스 제상가동 제1층 제102호 중 일부",
      "SAUP_PHONE": "010-7370-7326",
      "SALE_DATE_FMT": "2026-04-08",
      "SALE_DATE_RAW": "",
      "LAT": 37.2049388,
      "LNG": 127.0689,
      "DONG": "동탄2동",
      "BAG_TYPES": [
        "소각용 50L",
        "소각용 75L"
      ],
      "SALE_DATE": "20260408"
    },
    {
      "SHOP_NAME": "GS25 나눔동탄스타점",
      "SAUP_ADDR": "경기도 화성시 메타폴리스로 53 (반송동) 104,104-1호 (반송동 스타프라자)",
      "SAUP_PHONE": "010-7155-7540",
      "SALE_DATE_FMT": "2026-04-08",
      "SALE_DATE_RAW": "",
      "LAT": 37.2021712,
      "LNG": 127.0732004,
      "DONG": "동탄2동",
      "BAG_TYPES": [
        "소각용 50L",
        "소각용 75L"
      ],
      "SALE_DATE": "20260408"
    },
    {
      "SHOP_NAME": "미래마켓24",
      "SAUP_ADDR": "경기도 화성시 동탄중심상가1길 28(반송동) 1층",
      "SAUP_PHONE": "010-3213-3486",
      "SALE_DATE_FMT": "2026-04-15",
      "SALE_DATE_RAW": "",
      "LAT": 37.2015026,
      "LNG": 127.0725306,
      "DONG": "동탄2동",
      "BAG_TYPES": [
        "소각용 50L",
        "소각용 75L"
      ],
      "SALE_DATE": "20260415"
    },
    {
      "SHOP_NAME": "GS더프레시 동탄남광장점",
      "SAUP_ADDR": "경기도 화성시 동탄반석로 130(반송동) 106,107,108호",
      "SAUP_PHONE": "010-8742-6906",
      "SALE_DATE_FMT": "2026-04-15",
      "SALE_DATE_RAW": "",
      "LAT": 37.2004549,
      "LNG": 127.0714072,
      "DONG": "동탄2동",
      "BAG_TYPES": [
        "소각용 50L",
        "소각용 75L"
      ],
      "SALE_DATE": "20260415"
    },
    {
      "SHOP_NAME": "세븐일레븐 동탄중심상가점",
      "SAUP_ADDR": "경기도 화성시 동탄중심상가1길 8 (반송동) 107호",
      "SAUP_PHONE": "010-5044-6306",
      "SALE_DATE_FMT": "2026-04-15",
      "SALE_DATE_RAW": "",
      "LAT": 37.2000658,
      "LNG": 127.0720012,
      "DONG": "동탄2동",
      "BAG_TYPES": [
        "소각용 50L"
      ],
      "SALE_DATE": "20260415"
    },
    {
      "SHOP_NAME": "씨유 동탄에이스타운점",
      "SAUP_ADDR": "경기도 화성시 동탄문화센터로 65(반송동) 134호",
      "SAUP_PHONE": "010-4026-5343",
      "SALE_DATE_FMT": "2026-04-15",
      "SALE_DATE_RAW": "",
      "LAT": 37.1999755,
      "LNG": 127.0724714,
      "DONG": "동탄2동",
      "BAG_TYPES": [
        "소각용 50L",
        "소각용 75L"
      ],
      "SALE_DATE": "20260415"
    },
    {
      "SHOP_NAME": "세븐일레븐 화성반송중앙점",
      "SAUP_ADDR": "노작로4길 8/ 연슈퍼쪽",
      "SAUP_PHONE": "010-8464-5516",
      "SALE_DATE_FMT": "2026-03-11",
      "SALE_DATE_RAW": "",
      "LAT": 37.1967109,
      "LNG": 127.0775507,
      "DONG": "동탄2동",
      "BAG_TYPES": [
        "소각용 50L",
        "소각용 75L"
      ],
      "SALE_DATE": "20260311"
    },
    {
      "SHOP_NAME": "GS25 동탄새강마을점",
      "SAUP_ADDR": "경기도 화성시 10용사로 463 (반송동) 102호",
      "SAUP_PHONE": "010-8079-0557",
      "SALE_DATE_FMT": "2026-04-08",
      "SALE_DATE_RAW": "",
      "LAT": 37.1966988,
      "LNG": 127.0674343,
      "DONG": "동탄2동",
      "BAG_TYPES": [
        "소각용 50L",
        "소각용 75L"
      ],
      "SALE_DATE": "20260408"
    },
    {
      "SHOP_NAME": "신도마트",
      "SAUP_ADDR": "경기도 화성시 동탄반석로 72 (반송동) 상가동 105호",
      "SAUP_PHONE": "010-3200-8014",
      "SALE_DATE_FMT": "2026-04-15",
      "SALE_DATE_RAW": "",
      "LAT": 37.1963617,
      "LNG": 127.074896,
      "DONG": "동탄2동",
      "BAG_TYPES": [
        "소각용 50L",
        "소각용 75L"
      ],
      "SALE_DATE": "20260415"
    },
    {
      "SHOP_NAME": "씨유 동탄나루마을점",
      "SAUP_ADDR": "경기도 화성시 동탄반석로 44 (반송동) 101~102호",
      "SAUP_PHONE": "010-7420-5251",
      "SALE_DATE_FMT": "2026-04-15",
      "SALE_DATE_RAW": "",
      "LAT": 37.1947971,
      "LNG": 127.0768038,
      "DONG": "동탄2동",
      "BAG_TYPES": [
        "소각용 50L",
        "소각용 75L"
      ],
      "SALE_DATE": "20260415"
    },
    {
      "SHOP_NAME": "세븐일레븐 동탄신도점",
      "SAUP_ADDR": "경기도 화성시 동탄솔빛로 62 (반송동) 115호 116호",
      "SAUP_PHONE": "010-6473-1453",
      "SALE_DATE_FMT": "2026-04-15",
      "SALE_DATE_RAW": "",
      "LAT": 37.1939233,
      "LNG": 127.0742816,
      "DONG": "동탄2동",
      "BAG_TYPES": [
        "소각용 50L",
        "소각용 75L"
      ],
      "SALE_DATE": "20260415"
    },
    {
      "SHOP_NAME": "홈플러스익스프레스 동탄점",
      "SAUP_ADDR": "동탄솔빛로 53",
      "SAUP_PHONE": "8003-8545",
      "SALE_DATE_FMT": "2026-01-21",
      "SALE_DATE_RAW": "",
      "LAT": 37.1939143,
      "LNG": 127.0733164,
      "DONG": "동탄2동",
      "BAG_TYPES": [
        "소각용 50L"
      ],
      "SALE_DATE": "20260121"
    },
    {
      "SHOP_NAME": "GS25 동탄하늘점",
      "SAUP_ADDR": "경기도 화성시 동탄중앙로 51-1(반송동) B103호",
      "SAUP_PHONE": "010-8430-3372",
      "SALE_DATE_FMT": "2026-02-25",
      "SALE_DATE_RAW": "",
      "LAT": 37.1910722,
      "LNG": 127.0728819,
      "DONG": "동탄2동",
      "BAG_TYPES": [
        "소각용 50L"
      ],
      "SALE_DATE": "20260225"
    },
    {
      "SHOP_NAME": "세븐일레븐 동탄타운하우스점",
      "SAUP_ADDR": "경기도 화성시 10용사로 563 (반송동) 외1필지 101,102호",
      "SAUP_PHONE": "010-5598-7113",
      "SALE_DATE_FMT": "2026-04-15",
      "SALE_DATE_RAW": "",
      "LAT": 37.1888465,
      "LNG": 127.0721332,
      "DONG": "동탄2동",
      "BAG_TYPES": [
        "소각용 50L",
        "소각용 75L"
      ],
      "SALE_DATE": "20260415"
    },
    {
      "SHOP_NAME": "세븐일레븐 동탄에듀몰점",
      "SAUP_ADDR": "경기도 화성시 동탄기흥로353번길 99-7 (오산동) 102,103호",
      "SAUP_PHONE": "010-5466-7577",
      "SALE_DATE_FMT": "2026-04-15",
      "SALE_DATE_RAW": "",
      "LAT": 37.1877862,
      "LNG": 127.0867963,
      "DONG": "동탄2동",
      "BAG_TYPES": [
        "소각용 50L",
        "소각용 75L"
      ],
      "SALE_DATE": "20260415"
    },
    {
      "SHOP_NAME": "세븐일레븐 동탄금곡로점",
      "SAUP_ADDR": "경기도 화성시 금곡로 233(금곡동) 102호",
      "SAUP_PHONE": "010-8210-3965",
      "SALE_DATE_FMT": "2026-04-15",
      "SALE_DATE_RAW": "",
      "LAT": 37.1811347,
      "LNG": 127.0779536,
      "DONG": "동탄2동",
      "BAG_TYPES": [
        "소각용 50L",
        "소각용 75L"
      ],
      "SALE_DATE": "20260415"
    },
    {
      "SHOP_NAME": "씨유 동탄반송원룸점",
      "SAUP_ADDR": "노작로2길 10, 1층",
      "SAUP_PHONE": "010-3820-4765",
      "SALE_DATE_FMT": "2026-04-15",
      "SALE_DATE_RAW": "",
      "LAT": 0.0,
      "LNG": 0.0,
      "DONG": "동탄2동",
      "BAG_TYPES": [
        "소각용 50L",
        "소각용 75L"
      ],
      "SALE_DATE": "20260415"
    },
    {
      "SHOP_NAME": "GS25 동탄반송행복점",
      "SAUP_ADDR": "경기도 화성시 노작로4길 5-15 (반송동) 101호",
      "SAUP_PHONE": "010-6567-6038",
      "SALE_DATE_FMT": "2026-03-25",
      "SALE_DATE_RAW": "",
      "LAT": 37.1971234,
      "LNG": 127.0764764,
      "DONG": "동탄2동",
      "BAG_TYPES": [
        "소각용 75L"
      ],
      "SALE_DATE": "20260325"
    },
    {
      "SHOP_NAME": "GS25 동탄솔빛마을점",
      "SAUP_ADDR": "경기도 화성시 동탄반석로 94 (반송동) 102,103,104호",
      "SAUP_PHONE": "010-5915-8862",
      "SALE_DATE_FMT": "2026-03-25",
      "SALE_DATE_RAW": "",
      "LAT": 37.198311,
      "LNG": 127.0731865,
      "DONG": "동탄2동",
      "BAG_TYPES": [
        "소각용 75L"
      ],
      "SALE_DATE": "20260325"
    },
    {
      "SHOP_NAME": "씨유 동탄상록점",
      "SAUP_ADDR": "경기도 화성시 동탄원천로 315-18 (능동, 동탄능동마을상록예가아파트) 상가 104호",
      "SAUP_PHONE": "010-8893-3054",
      "SALE_DATE_FMT": "2026-04-15",
      "SALE_DATE_RAW": "",
      "LAT": 37.2151251,
      "LNG": 127.0582575,
      "DONG": "동탄3동",
      "BAG_TYPES": [
        "소각용 50L",
        "소각용 75L"
      ],
      "SALE_DATE": "20260415"
    },
    {
      "SHOP_NAME": "세븐일레븐 동탄이지더원점",
      "SAUP_ADDR": "경기도 화성시 동탄원천로 315-33 (능동) 785동 102호",
      "SAUP_PHONE": "010-5266-4098",
      "SALE_DATE_FMT": "2026-04-08",
      "SALE_DATE_RAW": "",
      "LAT": 37.2125135,
      "LNG": 127.0570006,
      "DONG": "동탄3동",
      "BAG_TYPES": [
        "소각용 50L",
        "소각용 75L"
      ],
      "SALE_DATE": "20260408"
    },
    {
      "SHOP_NAME": "정서시스템(주)",
      "SAUP_ADDR": "경기도 화성시 남여울2길 25 (능동)",
      "SAUP_PHONE": "010-6239-2590",
      "SALE_DATE_FMT": "2026-04-08",
      "SALE_DATE_RAW": "",
      "LAT": 37.1974897,
      "LNG": 127.0517472,
      "DONG": "동탄3동",
      "BAG_TYPES": [
        "소각용 50L",
        "소각용 75L"
      ],
      "SALE_DATE": "20260408"
    },
    {
      "SHOP_NAME": "유한회사 아미고스",
      "SAUP_ADDR": "경기도 화성시 동탄하나1길 61(능동) 103호",
      "SAUP_PHONE": "010-8958-0358",
      "SALE_DATE_FMT": "2026-04-15",
      "SALE_DATE_RAW": "",
      "LAT": 37.2191528,
      "LNG": 127.0583835,
      "DONG": "동탄3동",
      "BAG_TYPES": [
        "소각용 50L",
        "소각용 75L"
      ],
      "SALE_DATE": "20260415"
    },
    {
      "SHOP_NAME": "씨유 동탄우남스타점",
      "SAUP_ADDR": "경기 화성시 동탄원천로 354-11, 104호",
      "SAUP_PHONE": "010-9072-3788",
      "SALE_DATE_FMT": "2026-04-15",
      "SALE_DATE_RAW": "",
      "LAT": 37.2187671,
      "LNG": 127.0579413,
      "DONG": "동탄3동",
      "BAG_TYPES": [
        "소각용 50L",
        "소각용 75L"
      ],
      "SALE_DATE": "20260415"
    },
    {
      "SHOP_NAME": "세븐일레븐 동탄푸르지오시티점",
      "SAUP_ADDR": "경기도 화성시 동탄원천로 360 (능동) 1층 117호",
      "SAUP_PHONE": "010-9649-6800",
      "SALE_DATE_FMT": "2026-04-15",
      "SALE_DATE_RAW": "",
      "LAT": 37.2184425,
      "LNG": 127.0574252,
      "DONG": "동탄3동",
      "BAG_TYPES": [
        "소각용 50L",
        "소각용 75L"
      ],
      "SALE_DATE": "20260415"
    },
    {
      "SHOP_NAME": "씨유 화성아르젠점",
      "SAUP_ADDR": "경기도 화성시 동탄원천로 354-8 (능동) 103,104",
      "SAUP_PHONE": "010-5544-9886",
      "SALE_DATE_FMT": "2026-04-15",
      "SALE_DATE_RAW": "",
      "LAT": 37.2178871,
      "LNG": 127.0581849,
      "DONG": "동탄3동",
      "BAG_TYPES": [
        "소각용 50L",
        "소각용 75L"
      ],
      "SALE_DATE": "20260415"
    },
    {
      "SHOP_NAME": "씨유 동탄여울점",
      "SAUP_ADDR": "경기도 화성시 여울로4길 10 (능동) 1층",
      "SAUP_PHONE": "010-7373-7614",
      "SALE_DATE_FMT": "2026-04-15",
      "SALE_DATE_RAW": "",
      "LAT": 37.2171273,
      "LNG": 127.0575874,
      "DONG": "동탄3동",
      "BAG_TYPES": [
        "소각용 50L",
        "소각용 75L"
      ],
      "SALE_DATE": "20260415"
    },
    {
      "SHOP_NAME": "씨유 능동주공점",
      "SAUP_ADDR": "경기도 화성시 동탄원천로 338-12 (능동) 104,105호",
      "SAUP_PHONE": "010-3556-5536",
      "SALE_DATE_FMT": "2026-04-15",
      "SALE_DATE_RAW": "",
      "LAT": 37.2166549,
      "LNG": 127.0603135,
      "DONG": "동탄3동",
      "BAG_TYPES": [
        "소각용 50L",
        "소각용 75L"
      ],
      "SALE_DATE": "20260415"
    },
    {
      "SHOP_NAME": "세계로마트",
      "SAUP_ADDR": "경기도 화성시 여울로 189-15(능동)",
      "SAUP_PHONE": "010-2496-3363",
      "SALE_DATE_FMT": "2026-04-15",
      "SALE_DATE_RAW": "",
      "LAT": 37.2154772,
      "LNG": 127.0559349,
      "DONG": "동탄3동",
      "BAG_TYPES": [
        "소각용 50L",
        "소각용 75L"
      ],
      "SALE_DATE": "20260415"
    },
    {
      "SHOP_NAME": "세븐일레븐 동탄능동타운점",
      "SAUP_ADDR": "경기도 화성시 여울로 171 (능동) 101호",
      "SAUP_PHONE": "010-4702-1160",
      "SALE_DATE_FMT": "2026-04-15",
      "SALE_DATE_RAW": "",
      "LAT": 37.2142019,
      "LNG": 127.0554417,
      "DONG": "동탄3동",
      "BAG_TYPES": [
        "소각용 50L",
        "소각용 75L"
      ],
      "SALE_DATE": "20260415"
    },
    {
      "SHOP_NAME": "세븐일레븐 동탄능동중앙점",
      "SAUP_ADDR": "경기도 화성시 동탄원천로 289-10(능동) 102호",
      "SAUP_PHONE": "010-2261-5099",
      "SALE_DATE_FMT": "2026-04-08",
      "SALE_DATE_RAW": "",
      "LAT": 37.2136291,
      "LNG": 127.0610433,
      "DONG": "동탄3동",
      "BAG_TYPES": [
        "소각용 50L",
        "소각용 75L"
      ],
      "SALE_DATE": "20260408"
    },
    {
      "SHOP_NAME": "씨유 동탄능동7단지점",
      "SAUP_ADDR": "경기도 화성시 동탄지성로 150-14(능동) 가상가동 102~103호",
      "SAUP_PHONE": "010-8403-1381",
      "SALE_DATE_FMT": "2026-03-25",
      "SALE_DATE_RAW": "",
      "LAT": 37.2113518,
      "LNG": 127.0613125,
      "DONG": "동탄3동",
      "BAG_TYPES": [
        "소각용 50L",
        "소각용 75L"
      ],
      "SALE_DATE": "20260325"
    },
    {
      "SHOP_NAME": "홈플러스익스프레스 동탄3호",
      "SAUP_ADDR": "동탄지성로 142 동탄택지지구 28-3블럭에이애니프라자 1층",
      "SAUP_PHONE": "010-2763-4303",
      "SALE_DATE_FMT": "2026-03-18",
      "SALE_DATE_RAW": "",
      "LAT": 37.2098534,
      "LNG": 127.0601528,
      "DONG": "동탄3동",
      "BAG_TYPES": [
        "소각용 50L"
      ],
      "SALE_DATE": "20260318"
    },
    {
      "SHOP_NAME": "GS25 동탄한솔점",
      "SAUP_ADDR": "경기도 화성시 동탄지성로 134(능동) 109-1호",
      "SAUP_PHONE": "010-2970-7234",
      "SALE_DATE_FMT": "2026-04-15",
      "SALE_DATE_RAW": "",
      "LAT": 37.2096177,
      "LNG": 127.0609653,
      "DONG": "동탄3동",
      "BAG_TYPES": [
        "소각용 50L",
        "소각용 75L"
      ],
      "SALE_DATE": "20260415"
    },
    {
      "SHOP_NAME": "이마트에브리데이 능동점",
      "SAUP_ADDR": "경기도 화성시 동탄숲속로 63-1 (능동)",
      "SAUP_PHONE": "010-4702-6760",
      "SALE_DATE_FMT": "2026-04-07",
      "SALE_DATE_RAW": "",
      "LAT": 37.2087044,
      "LNG": 127.0538842,
      "DONG": "동탄3동",
      "BAG_TYPES": [
        "소각용 50L",
        "소각용 75L"
      ],
      "SALE_DATE": "20260407"
    },
    {
      "SHOP_NAME": "GS25 동탄데시앙점",
      "SAUP_ADDR": "경기도 화성시 동탄숲속로 68(능동, 동탄숲속마을 자연앤데시앙아파트) 109호",
      "SAUP_PHONE": "010-3039-5745",
      "SALE_DATE_FMT": "2026-04-15",
      "SALE_DATE_RAW": "",
      "LAT": 37.2070892,
      "LNG": 127.054236,
      "DONG": "동탄3동",
      "BAG_TYPES": [
        "소각용 50L",
        "소각용 75L"
      ],
      "SALE_DATE": "20260415"
    },
    {
      "SHOP_NAME": "GS25 동탄금호점",
      "SAUP_ADDR": "경기도 화성시 동탄중앙로 213-1 (반송동) 103호",
      "SAUP_PHONE": "010-9920-1536",
      "SALE_DATE_FMT": "2026-04-08",
      "SALE_DATE_RAW": "",
      "LAT": 37.2056351,
      "LNG": 127.0667127,
      "DONG": "동탄3동",
      "BAG_TYPES": [
        "소각용 50L",
        "소각용 75L"
      ],
      "SALE_DATE": "20260408"
    },
    {
      "SHOP_NAME": "씨유 동탄나래울점",
      "SAUP_ADDR": "경기도 화성시 여울로2길 34 (능동) 1층",
      "SAUP_PHONE": "010-3767-0482",
      "SALE_DATE_FMT": "2026-04-15",
      "SALE_DATE_RAW": "",
      "LAT": 37.2047706,
      "LNG": 127.0525156,
      "DONG": "동탄3동",
      "BAG_TYPES": [
        "소각용 50L",
        "소각용 75L"
      ],
      "SALE_DATE": "20260415"
    },
    {
      "SHOP_NAME": "GS25 동탄반송점",
      "SAUP_ADDR": "동탄공원로1길 12-7, 1층",
      "SAUP_PHONE": "010-2614-8469",
      "SALE_DATE_FMT": "2026-04-15",
      "SALE_DATE_RAW": "",
      "LAT": 37.2024845,
      "LNG": 127.0602021,
      "DONG": "동탄3동",
      "BAG_TYPES": [
        "소각용 50L",
        "소각용 75L"
      ],
      "SALE_DATE": "20260415"
    },
    {
      "SHOP_NAME": "홈플러스익스프레스 동탄2호",
      "SAUP_ADDR": "10용사로 349-11  푸른마을 위너스프라자 1층",
      "SAUP_PHONE": "010-9164-1829",
      "SALE_DATE_FMT": "2026-03-25",
      "SALE_DATE_RAW": "",
      "LAT": 37.2000827,
      "LNG": 127.056176,
      "DONG": "동탄3동",
      "BAG_TYPES": [
        "소각용 50L"
      ],
      "SALE_DATE": "20260325"
    },
    {
      "SHOP_NAME": "이마트24 R동탄푸른점",
      "SAUP_ADDR": "경기도 화성시 10용사로 343-2(능동) 119-120호",
      "SAUP_PHONE": "010-8003-3386",
      "SALE_DATE_FMT": "2026-04-15",
      "SALE_DATE_RAW": "",
      "LAT": 37.1994347,
      "LNG": 127.0558229,
      "DONG": "동탄3동",
      "BAG_TYPES": [
        "소각용 50L",
        "소각용 75L"
      ],
      "SALE_DATE": "20260415"
    },
    {
      "SHOP_NAME": "홈플러스익스프레스 화성능동점",
      "SAUP_ADDR": "남여울3길 4",
      "SAUP_PHONE": "8003-8873,8770",
      "SALE_DATE_FMT": "2026-03-18",
      "SALE_DATE_RAW": "",
      "LAT": 37.1987203,
      "LNG": 127.0530753,
      "DONG": "동탄3동",
      "BAG_TYPES": [
        "소각용 50L"
      ],
      "SALE_DATE": "20260318"
    },
    {
      "SHOP_NAME": "에스엔에이치",
      "SAUP_ADDR": "경기도 화성시 금곡로 185-10(금곡동)",
      "SAUP_PHONE": "010-9379-7377",
      "SALE_DATE_FMT": "2026-04-15",
      "SALE_DATE_RAW": "",
      "LAT": 37.1772698,
      "LNG": 127.0795278,
      "DONG": "동탄3동",
      "BAG_TYPES": [
        "소각용 50L",
        "소각용 75L"
      ],
      "SALE_DATE": "20260415"
    },
    {
      "SHOP_NAME": "세븐일레븐 서동탄점",
      "SAUP_ADDR": "남여울1길 26-11",
      "SAUP_PHONE": "010-3732-8023",
      "SALE_DATE_FMT": "2026-04-15",
      "SALE_DATE_RAW": "",
      "LAT": 0.0,
      "LNG": 0.0,
      "DONG": "동탄3동",
      "BAG_TYPES": [
        "소각용 50L",
        "소각용 75L"
      ],
      "SALE_DATE": "20260415"
    },
    {
      "SHOP_NAME": "GS25 동탄미래도",
      "SAUP_ADDR": "동탄공원로 21-13, 상가 에이동 1층 106호,107호",
      "SAUP_PHONE": "010-2242-8551",
      "SALE_DATE_FMT": "2026-04-15",
      "SALE_DATE_RAW": "",
      "LAT": 0.0,
      "LNG": 0.0,
      "DONG": "동탄3동",
      "BAG_TYPES": [
        "소각용 50L",
        "소각용 75L"
      ],
      "SALE_DATE": "20260415"
    },
    {
      "SHOP_NAME": "세븐일레븐 서동탄파크자이점",
      "SAUP_ADDR": "병점중앙로 22번길 61-9, 302동 제 1층,105,106호",
      "SAUP_PHONE": "010-9349-8866",
      "SALE_DATE_FMT": "2026-04-15",
      "SALE_DATE_RAW": "",
      "LAT": 0.0,
      "LNG": 0.0,
      "DONG": "동탄3동",
      "BAG_TYPES": [
        "소각용 50L",
        "소각용 75L"
      ],
      "SALE_DATE": "20260415"
    },
    {
      "SHOP_NAME": "GS25 동탄모아점",
      "SAUP_ADDR": "동탄숲속로 98, 상가동 117호(능동, 동탄숲속마을 모아미래도1단지)",
      "SAUP_PHONE": "010-5548-9909",
      "SALE_DATE_FMT": "2026-04-15",
      "SALE_DATE_RAW": "",
      "LAT": 0.0,
      "LNG": 0.0,
      "DONG": "동탄3동",
      "BAG_TYPES": [
        "소각용 50L",
        "소각용 75L"
      ],
      "SALE_DATE": "20260415"
    },
    {
      "SHOP_NAME": "현대그린병점 주식회사",
      "SAUP_ADDR": "경기도 화성시 경기대로1010번길 8 (병점동)",
      "SAUP_PHONE": "010-6280-4269",
      "SALE_DATE_FMT": "2026-04-17",
      "SALE_DATE_RAW": "",
      "LAT": 37.2059714,
      "LNG": 127.0376588,
      "DONG": "동탄4동",
      "BAG_TYPES": [
        "소각용 50L",
        "소각용 75L"
      ],
      "SALE_DATE": "20260417"
    },
    {
      "SHOP_NAME": "GS25 병점써밋점",
      "SAUP_ADDR": "경기도 화성시 경기대로 1011 (병점동) 동 115,116호",
      "SAUP_PHONE": "010-3322-7591",
      "SALE_DATE_FMT": "2026-04-17",
      "SALE_DATE_RAW": "",
      "LAT": 37.2057863,
      "LNG": 127.0361942,
      "DONG": "동탄4동",
      "BAG_TYPES": [
        "소각용 50L",
        "소각용 75L"
      ],
      "SALE_DATE": "20260417"
    },
    {
      "SHOP_NAME": "씨유 병점아이파크캐슬점",
      "SAUP_ADDR": "경기도 화성시 병점노을로 31 (병점동, 병점역 아이파크 캐슬) 근린생활시설3동 1층 2,3호",
      "SAUP_PHONE": "010-2604-7117",
      "SALE_DATE_FMT": "2026-04-17",
      "SALE_DATE_RAW": "",
      "LAT": 37.2031558,
      "LNG": 127.0273261,
      "DONG": "동탄4동",
      "BAG_TYPES": [
        "소각용 50L",
        "소각용 75L"
      ],
      "SALE_DATE": "20260417"
    },
    {
      "SHOP_NAME": "씨유 병점중앙점",
      "SAUP_ADDR": "병점2로 46, 105호",
      "SAUP_PHONE": "010-4344-3719",
      "SALE_DATE_FMT": "2026-04-17",
      "SALE_DATE_RAW": "",
      "LAT": 0.0,
      "LNG": 0.0,
      "DONG": "동탄4동",
      "BAG_TYPES": [
        "소각용 50L",
        "소각용 75L"
      ],
      "SALE_DATE": "20260417"
    },
    {
      "SHOP_NAME": "씨유 진안센터점",
      "SAUP_ADDR": "경기도 화성시 병점4로 28-1 (진안동) 1층",
      "SAUP_PHONE": "010-4109-1025",
      "SALE_DATE_FMT": "2026-04-17",
      "SALE_DATE_RAW": "",
      "LAT": 37.2131723,
      "LNG": 127.034482,
      "DONG": "동탄5동",
      "BAG_TYPES": [
        "소각용 50L",
        "소각용 75L"
      ],
      "SALE_DATE": "20260417"
    },
    {
      "SHOP_NAME": "씨유 병점주공점",
      "SAUP_ADDR": "병점3로 90, 제상 가동 101호",
      "SAUP_PHONE": "010-2215-9047",
      "SALE_DATE_FMT": "2026-04-17",
      "SALE_DATE_RAW": "",
      "LAT": 0.0,
      "LNG": 0.0,
      "DONG": "동탄5동",
      "BAG_TYPES": [
        "소각용 50L",
        "소각용 75L"
      ],
      "SALE_DATE": "20260417"
    },
    {
      "SHOP_NAME": "이마트24 동탄반도1차점",
      "SAUP_ADDR": "경기도 화성시 동탄대로시범길 168 (청계동, 동탄역 시범반도유보라아이비파크 1.0) 상가동 105,106호",
      "SAUP_PHONE": "010-2440-5007",
      "SALE_DATE_FMT": "2026-04-16",
      "SALE_DATE_RAW": "",
      "LAT": 37.2022429,
      "LNG": 127.111965,
      "DONG": "동탄6동",
      "BAG_TYPES": [
        "소각용 50L",
        "소각용 75L"
      ],
      "SALE_DATE": "20260416"
    },
    {
      "SHOP_NAME": "씨유 동탄헤리움점",
      "SAUP_ADDR": "경기도 화성시 동탄대로411번길 7 (오산동) 상가 109,110호",
      "SAUP_PHONE": "010-3342-1141",
      "SALE_DATE_FMT": "2026-04-16",
      "SALE_DATE_RAW": "",
      "LAT": 37.1900362,
      "LNG": 127.098297,
      "DONG": "동탄6동",
      "BAG_TYPES": [
        "소각용 50L",
        "소각용 75L"
      ],
      "SALE_DATE": "20260416"
    },
    {
      "SHOP_NAME": "씨유 동탄역캐슬점",
      "SAUP_ADDR": "경기도 화성시 동탄역로 150 (오산동, 동탄역 롯데캐슬) B 128호",
      "SAUP_PHONE": "010-3477-0323",
      "SALE_DATE_FMT": "2026-04-16",
      "SALE_DATE_RAW": "",
      "LAT": 37.1999564,
      "LNG": 127.0974271,
      "DONG": "동탄6동",
      "BAG_TYPES": [
        "소각용 50L",
        "소각용 75L"
      ],
      "SALE_DATE": "20260416"
    },
    {
      "SHOP_NAME": "GS25 동탄아이비",
      "SAUP_ADDR": "경기도 화성시 동탄광역환승로 63 (오산동, 동탄역 반도유보라 아이비파크 7.0) 106동 151호",
      "SAUP_PHONE": "010-2053-9441",
      "SALE_DATE_FMT": "2026-04-16",
      "SALE_DATE_RAW": "",
      "LAT": 37.2030479,
      "LNG": 127.0890708,
      "DONG": "동탄6동",
      "BAG_TYPES": [
        "소각용 50L",
        "소각용 75L"
      ],
      "SALE_DATE": "20260416"
    },
    {
      "SHOP_NAME": "GS25 동탄애비뉴점",
      "SAUP_ADDR": "경기도 화성시 동탄역로 196(오산동, 동탄역 예미지 시그너스) 142호",
      "SAUP_PHONE": "010-9962-0146",
      "SALE_DATE_FMT": "2026-04-16",
      "SALE_DATE_RAW": "",
      "LAT": 37.2041679,
      "LNG": 127.0968816,
      "DONG": "동탄6동",
      "BAG_TYPES": [
        "소각용 50L",
        "소각용 75L"
      ],
      "SALE_DATE": "20260416"
    },
    {
      "SHOP_NAME": "씨유 동탄역카림점",
      "SAUP_ADDR": "경기도 화성시 동탄기흥로 479-12 (오산동, 동탄역 반도유보라 아이비파크6.0) A동 101호",
      "SAUP_PHONE": "010-5009-6425",
      "SALE_DATE_FMT": "2026-04-16",
      "SALE_DATE_RAW": "",
      "LAT": 37.2039069,
      "LNG": 127.0910872,
      "DONG": "동탄6동",
      "BAG_TYPES": [
        "소각용 50L",
        "소각용 75L"
      ],
      "SALE_DATE": "20260416"
    },
    {
      "SHOP_NAME": "GS25 동탄르보아점",
      "SAUP_ADDR": "동탄대로 557-9, 상가113호",
      "SAUP_PHONE": "010-4059-4675",
      "SALE_DATE_FMT": "2026-04-16",
      "SALE_DATE_RAW": "",
      "LAT": 37.203248,
      "LNG": 127.0980678,
      "DONG": "동탄6동",
      "BAG_TYPES": [
        "소각용 50L",
        "소각용 75L"
      ],
      "SALE_DATE": "20260416"
    },
    {
      "SHOP_NAME": "씨유 동탄푸르지오시티점",
      "SAUP_ADDR": "경기도 화성시 동탄대로 551-16 (오산동) 122,123호",
      "SAUP_PHONE": "010-3370-7183",
      "SALE_DATE_FMT": "2026-04-16",
      "SALE_DATE_RAW": "",
      "LAT": 37.2031691,
      "LNG": 127.0968965,
      "DONG": "동탄6동",
      "BAG_TYPES": [
        "소각용 50L",
        "소각용 75L"
      ],
      "SALE_DATE": "20260416"
    },
    {
      "SHOP_NAME": "씨유 동탄우남점",
      "SAUP_ADDR": "경기도 화성시 동탄대로시범길 276(청계동, 동탄역 시범우남퍼스트빌아파트) 1층 103,104호",
      "SAUP_PHONE": "010-4816-3028",
      "SALE_DATE_FMT": "2026-04-16",
      "SALE_DATE_RAW": "",
      "LAT": 37.2030526,
      "LNG": 127.1009571,
      "DONG": "동탄6동",
      "BAG_TYPES": [
        "소각용 50L",
        "소각용 75L"
      ],
      "SALE_DATE": "20260416"
    },
    {
      "SHOP_NAME": "GS더프레시 동탄아이비파크점",
      "SAUP_ADDR": "동탄광역환승로 73, 207동 지하1층",
      "SAUP_PHONE": "010-9461-1369",
      "SALE_DATE_FMT": "2026-04-16",
      "SALE_DATE_RAW": "",
      "LAT": 37.2026473,
      "LNG": 127.0907013,
      "DONG": "동탄6동",
      "BAG_TYPES": [
        "소각용 50L",
        "소각용 75L"
      ],
      "SALE_DATE": "20260416"
    },
    {
      "SHOP_NAME": "GS25 동탄계룡",
      "SAUP_ADDR": "동탄대로시범길 236, 근린생활시설동 104호",
      "SAUP_PHONE": "010-9012-9132",
      "SALE_DATE_FMT": "2026-04-09",
      "SALE_DATE_RAW": "",
      "LAT": 37.2026197,
      "LNG": 127.1046503,
      "DONG": "동탄6동",
      "BAG_TYPES": [
        "소각용 50L",
        "소각용 75L"
      ],
      "SALE_DATE": "20260409"
    },
    {
      "SHOP_NAME": "세븐일레븐 동탄반도유보라점",
      "SAUP_ADDR": "경기도 화성시 동탄광역환승로 73(오산동, 동탄역 반도유보라 아이비파크 8.0) 207동 168호",
      "SAUP_PHONE": "010-8342-1912",
      "SALE_DATE_FMT": "2026-04-16",
      "SALE_DATE_RAW": "",
      "LAT": 37.2023478,
      "LNG": 127.0907684,
      "DONG": "동탄6동",
      "BAG_TYPES": [
        "소각용 50L",
        "소각용 75L"
      ],
      "SALE_DATE": "20260416"
    },
    {
      "SHOP_NAME": "알파문구 동탄역점",
      "SAUP_ADDR": "동탄대로 537, 222호",
      "SAUP_PHONE": "010-9769-2042",
      "SALE_DATE_FMT": "2026-04-09",
      "SALE_DATE_RAW": "",
      "LAT": 37.202222,
      "LNG": 127.0979236,
      "DONG": "동탄6동",
      "BAG_TYPES": [
        "소각용 50L"
      ],
      "SALE_DATE": "20260409"
    },
    {
      "SHOP_NAME": "GS25 동탄플로레스점",
      "SAUP_ADDR": "경기도 화성시 동탄대로 537(오산동) 1층 1005호",
      "SAUP_PHONE": "010-3447-0834",
      "SALE_DATE_FMT": "2026-04-16",
      "SALE_DATE_RAW": "",
      "LAT": 37.2021846,
      "LNG": 127.0979469,
      "DONG": "동탄6동",
      "BAG_TYPES": [
        "소각용 50L",
        "소각용 75L"
      ],
      "SALE_DATE": "20260416"
    },
    {
      "SHOP_NAME": "세븐일레븐 동탄여울시티점",
      "SAUP_ADDR": "경기도 화성시 동탄기흥로 447-28(오산동) 111호,112호",
      "SAUP_PHONE": "010-7235-5700",
      "SALE_DATE_FMT": "2026-04-16",
      "SALE_DATE_RAW": "",
      "LAT": 37.2011919,
      "LNG": 127.0904623,
      "DONG": "동탄6동",
      "BAG_TYPES": [
        "소각용 50L",
        "소각용 75L"
      ],
      "SALE_DATE": "20260416"
    },
    {
      "SHOP_NAME": "세븐일레븐 동탄역유퍼스트",
      "SAUP_ADDR": "경기도 화성시 동탄기흥로 447-20 (오산동) 109호",
      "SAUP_PHONE": "010-2196-2177",
      "SALE_DATE_FMT": "2026-04-09",
      "SALE_DATE_RAW": "",
      "LAT": 37.2011912,
      "LNG": 127.0914009,
      "DONG": "동탄6동",
      "BAG_TYPES": [
        "소각용 50L",
        "소각용 75L"
      ],
      "SALE_DATE": "20260409"
    },
    {
      "SHOP_NAME": "여울프라임마트",
      "SAUP_ADDR": "경기도 화성시 동탄기흥로 447-30 (오산동) 110호",
      "SAUP_PHONE": "010-7569-8151",
      "SALE_DATE_FMT": "2026-01-29",
      "SALE_DATE_RAW": "",
      "LAT": 37.2011565,
      "LNG": 127.0900332,
      "DONG": "동탄6동",
      "BAG_TYPES": [
        "소각용 50L",
        "소각용 75L"
      ],
      "SALE_DATE": "20260129"
    },
    {
      "SHOP_NAME": "GS25 동탄신안점",
      "SAUP_ADDR": "경기도 화성시 동탄청계로 303-13 (청계동, 동탄역신안인스빌리베라2차) 102호",
      "SAUP_PHONE": "010-3740-2272",
      "SALE_DATE_FMT": "2026-04-16",
      "SALE_DATE_RAW": "",
      "LAT": 37.2008224,
      "LNG": 127.116582,
      "DONG": "동탄6동",
      "BAG_TYPES": [
        "소각용 50L",
        "소각용 75L"
      ],
      "SALE_DATE": "20260416"
    },
    {
      "SHOP_NAME": "비비마트",
      "SAUP_ADDR": "경기도 화성시 동탄순환대로 617 (청계동) 101~103호",
      "SAUP_PHONE": "010-2120-9903",
      "SALE_DATE_FMT": "2026-04-16",
      "SALE_DATE_RAW": "",
      "LAT": 37.2007486,
      "LNG": 127.1147456,
      "DONG": "동탄6동",
      "BAG_TYPES": [
        "소각용 50L",
        "소각용 75L"
      ],
      "SALE_DATE": "20260416"
    },
    {
      "SHOP_NAME": "세븐일레븐 동탄청계피추점",
      "SAUP_ADDR": "경기도 화성시 동탄대로시범길 148-58(청계동) 112,113호",
      "SAUP_PHONE": "010-2970-2899",
      "SALE_DATE_FMT": "2026-04-16",
      "SALE_DATE_RAW": "",
      "LAT": 37.2007084,
      "LNG": 127.1141978,
      "DONG": "동탄6동",
      "BAG_TYPES": [
        "소각용 50L",
        "소각용 75L"
      ],
      "SALE_DATE": "20260416"
    },
    {
      "SHOP_NAME": "세븐일레븐 동탄롯데백화점",
      "SAUP_ADDR": "경기도 화성시 동탄역로 160(오산동) B1층",
      "SAUP_PHONE": "010-8455-0354",
      "SALE_DATE_FMT": "2026-04-16",
      "SALE_DATE_RAW": "",
      "LAT": 37.2003592,
      "LNG": 127.0973217,
      "DONG": "동탄6동",
      "BAG_TYPES": [
        "소각용 50L",
        "소각용 75L"
      ],
      "SALE_DATE": "20260416"
    },
    {
      "SHOP_NAME": "씨유 동탄명산점",
      "SAUP_ADDR": "동탄대로시범길 148-16,111호",
      "SAUP_PHONE": "010-8646-1354",
      "SALE_DATE_FMT": "2026-04-16",
      "SALE_DATE_RAW": "",
      "LAT": 37.2001827,
      "LNG": 127.1141038,
      "DONG": "동탄6동",
      "BAG_TYPES": [
        "소각용 50L",
        "소각용 75L"
      ],
      "SALE_DATE": "20260416"
    },
    {
      "SHOP_NAME": "세븐일레븐 동탄역사점",
      "SAUP_ADDR": "경기도 화성시 동탄역로 지하151(오산동) 지하4층",
      "SAUP_PHONE": "010-9474-5378",
      "SALE_DATE_FMT": "2026-04-16",
      "SALE_DATE_RAW": "",
      "LAT": 37.1998837,
      "LNG": 127.0960359,
      "DONG": "동탄6동",
      "BAG_TYPES": [
        "소각용 50L",
        "소각용 75L"
      ],
      "SALE_DATE": "20260416"
    },
    {
      "SHOP_NAME": "GS25 동탄롯데점",
      "SAUP_ADDR": "경기도 화성시 동탄역로 150(오산동, 동탄역 롯데캐슬) 117호",
      "SAUP_PHONE": "010-5061-1985",
      "SALE_DATE_FMT": "2026-03-19",
      "SALE_DATE_RAW": "",
      "LAT": 37.1993171,
      "LNG": 127.0974641,
      "DONG": "동탄6동",
      "BAG_TYPES": [
        "소각용 50L",
        "소각용 75L"
      ],
      "SALE_DATE": "20260319"
    },
    {
      "SHOP_NAME": "이마트에브리데이 동탄카림점",
      "SAUP_ADDR": "동탄대로시범길 134, 판매시설 0130-0135",
      "SAUP_PHONE": "8055-7428",
      "SALE_DATE_FMT": "2026-03-30",
      "SALE_DATE_RAW": "",
      "LAT": 37.1992157,
      "LNG": 127.1142338,
      "DONG": "동탄6동",
      "BAG_TYPES": [
        "소각용 50L",
        "소각용 75L"
      ],
      "SALE_DATE": "20260330"
    },
    {
      "SHOP_NAME": "롯데슈퍼 동탄디에트르점",
      "SAUP_ADDR": "경기도 화성시 동탄오산로 29 (오산동)",
      "SAUP_PHONE": "010-6224-5923",
      "SALE_DATE_FMT": "2026-04-16",
      "SALE_DATE_RAW": "",
      "LAT": 37.199023,
      "LNG": 127.0911176,
      "DONG": "동탄6동",
      "BAG_TYPES": [
        "소각용 50L",
        "소각용 75L"
      ],
      "SALE_DATE": "20260416"
    },
    {
      "SHOP_NAME": "씨유 동탄대방디에트르점",
      "SAUP_ADDR": "경기도 화성시 동탄오산로 29 (오산동) D동 120호",
      "SAUP_PHONE": "010-9165-0140",
      "SALE_DATE_FMT": "2026-04-16",
      "SALE_DATE_RAW": "",
      "LAT": 37.199023,
      "LNG": 127.0911176,
      "DONG": "동탄6동",
      "BAG_TYPES": [
        "소각용 50L",
        "소각용 75L"
      ],
      "SALE_DATE": "20260416"
    },
    {
      "SHOP_NAME": "씨유 동탄노르웨이숲",
      "SAUP_ADDR": "경기도 화성시 오산동 978 동탄역 유림노르웨이숲 201동 1층 123호",
      "SAUP_PHONE": "010-4071-6942",
      "SALE_DATE_FMT": "2026-03-19",
      "SALE_DATE_RAW": "",
      "LAT": 37.1989248,
      "LNG": 127.0889065,
      "DONG": "동탄6동",
      "BAG_TYPES": [
        "소각용 50L",
        "소각용 75L"
      ],
      "SALE_DATE": "20260319"
    },
    {
      "SHOP_NAME": "씨유 동탄유림점",
      "SAUP_ADDR": "경기도 화성시 동탄감배산로 143(오산동, 동탄역 유림노르웨이숲) 203동 1층 179호",
      "SAUP_PHONE": "010-9256-4781",
      "SALE_DATE_FMT": "2026-04-16",
      "SALE_DATE_RAW": "",
      "LAT": 37.1989248,
      "LNG": 127.0889065,
      "DONG": "동탄6동",
      "BAG_TYPES": [
        "소각용 50L",
        "소각용 75L"
      ],
      "SALE_DATE": "20260416"
    },
    {
      "SHOP_NAME": "GS25 동탄포스코점",
      "SAUP_ADDR": "경기도 화성시 동탄대로시범길 19(청계동, 동탄역 시범 더샵 센트럴시티) 102호",
      "SAUP_PHONE": "010-8009-4247",
      "SALE_DATE_FMT": "2026-04-16",
      "SALE_DATE_RAW": "",
      "LAT": 37.1985203,
      "LNG": 127.1002903,
      "DONG": "동탄6동",
      "BAG_TYPES": [
        "소각용 50L",
        "소각용 75L"
      ],
      "SALE_DATE": "20260416"
    },
    {
      "SHOP_NAME": "GS더프레시 청계2점",
      "SAUP_ADDR": "경기도 화성시 동탄순환대로22길 46 (청계동, 청계숲 사랑으로 부영) 지하1층 104~106호",
      "SAUP_PHONE": "010-9999-3442",
      "SALE_DATE_FMT": "2026-04-09",
      "SALE_DATE_RAW": "",
      "LAT": 37.1983236,
      "LNG": 127.1205991,
      "DONG": "동탄6동",
      "BAG_TYPES": [
        "소각용 50L",
        "소각용 75L"
      ],
      "SALE_DATE": "20260409"
    },
    {
      "SHOP_NAME": "세븐일레븐 동탄호반베르디움",
      "SAUP_ADDR": "동탄순환대로22길 45, 1217동 103,104호 호반베르디움클래스",
      "SAUP_PHONE": "010-5797-8510",
      "SALE_DATE_FMT": "2026-04-16",
      "SALE_DATE_RAW": "",
      "LAT": 37.1982088,
      "LNG": 127.1182555,
      "DONG": "동탄6동",
      "BAG_TYPES": [
        "소각용 50L",
        "소각용 75L"
      ],
      "SALE_DATE": "20260416"
    },
    {
      "SHOP_NAME": "GS25 동탄역점",
      "SAUP_ADDR": "경기도 화성시 동탄오산로 86-3(오산동) 111호",
      "SAUP_PHONE": "010-4120-2302",
      "SALE_DATE_FMT": "2026-04-16",
      "SALE_DATE_RAW": "",
      "LAT": 37.1981094,
      "LNG": 127.0977676,
      "DONG": "동탄6동",
      "BAG_TYPES": [
        "소각용 50L",
        "소각용 75L"
      ],
      "SALE_DATE": "20260416"
    },
    {
      "SHOP_NAME": "이마트24 동탄시범호반점",
      "SAUP_ADDR": "경기도 화성시 동탄대로시범길 122(청계동, 동탄역시범호반써밋) 상가동 1동 104호",
      "SAUP_PHONE": "010-9061-5178",
      "SALE_DATE_FMT": "2026-04-16",
      "SALE_DATE_RAW": "",
      "LAT": 37.1978687,
      "LNG": 127.109735,
      "DONG": "동탄6동",
      "BAG_TYPES": [
        "소각용 50L"
      ],
      "SALE_DATE": "20260416"
    },
    {
      "SHOP_NAME": "세븐일레븐 동탄윤정점",
      "SAUP_ADDR": "동탄역로 124, 105호",
      "SAUP_PHONE": "010-6362-1201",
      "SALE_DATE_FMT": "2026-04-16",
      "SALE_DATE_RAW": "",
      "LAT": 37.1975611,
      "LNG": 127.0965879,
      "DONG": "동탄6동",
      "BAG_TYPES": [
        "소각용 50L",
        "소각용 75L"
      ],
      "SALE_DATE": "20260416"
    },
    {
      "SHOP_NAME": "씨유 동탄이너매스점",
      "SAUP_ADDR": "경기도 화성시 동탄감배산로 124-6(오산동) 103,104호",
      "SAUP_PHONE": "010-8452-5290",
      "SALE_DATE_FMT": "2026-04-15",
      "SALE_DATE_RAW": "",
      "LAT": 37.1974687,
      "LNG": 127.0900647,
      "DONG": "동탄6동",
      "BAG_TYPES": [
        "소각용 50L",
        "소각용 75L"
      ],
      "SALE_DATE": "20260415"
    },
    {
      "SHOP_NAME": "세븐일레븐 동탄우성점",
      "SAUP_ADDR": "동탄대로 489,1층 118호",
      "SAUP_PHONE": "010-5055-3779",
      "SALE_DATE_FMT": "2026-04-16",
      "SALE_DATE_RAW": "",
      "LAT": 37.1973592,
      "LNG": 127.0982637,
      "DONG": "동탄6동",
      "BAG_TYPES": [
        "소각용 50L",
        "소각용 75L"
      ],
      "SALE_DATE": "20260416"
    },
    {
      "SHOP_NAME": "씨유 동탄꿈에그린점",
      "SAUP_ADDR": "동탄대로 시범길 20, 상가동 1층 107호",
      "SAUP_PHONE": "010-7327-7924",
      "SALE_DATE_FMT": "2026-04-16",
      "SALE_DATE_RAW": "",
      "LAT": 37.1972739,
      "LNG": 127.1025421,
      "DONG": "동탄6동",
      "BAG_TYPES": [
        "소각용 50L",
        "소각용 75L"
      ],
      "SALE_DATE": "20260416"
    },
    {
      "SHOP_NAME": "GS25 동탄신유점",
      "SAUP_ADDR": "경기도 화성시 동탄대로19길 10 (오산동) 104호",
      "SAUP_PHONE": "010-2980-8600",
      "SALE_DATE_FMT": "2026-04-09",
      "SALE_DATE_RAW": "",
      "LAT": 37.1971765,
      "LNG": 127.0977667,
      "DONG": "동탄6동",
      "BAG_TYPES": [
        "소각용 50L",
        "소각용 75L"
      ],
      "SALE_DATE": "20260409"
    },
    {
      "SHOP_NAME": "씨유 동탄센트럴푸르지오점",
      "SAUP_ADDR": "경기도 화성시 동탄순환대로21길 54 (청계동, 동탄역 센트럴 푸르지오) 213,214호",
      "SAUP_PHONE": "010-4365-1322",
      "SALE_DATE_FMT": "2026-04-16",
      "SALE_DATE_RAW": "",
      "LAT": 37.1971383,
      "LNG": 127.1158781,
      "DONG": "동탄6동",
      "BAG_TYPES": [
        "소각용 50L",
        "소각용 75L"
      ],
      "SALE_DATE": "20260416"
    },
    {
      "SHOP_NAME": "GS25 동탄한화점",
      "SAUP_ADDR": "경기도 화성시 동탄대로시범길 20(청계동, 동탄역 시범한화 꿈에그린 프레스티지) 118호",
      "SAUP_PHONE": "010-2253-1187",
      "SALE_DATE_FMT": "2026-04-16",
      "SALE_DATE_RAW": "",
      "LAT": 37.1969247,
      "LNG": 127.1021837,
      "DONG": "동탄6동",
      "BAG_TYPES": [
        "소각용 50L",
        "소각용 75L"
      ],
      "SALE_DATE": "20260416"
    },
    {
      "SHOP_NAME": "씨유 동탄여울공원점",
      "SAUP_ADDR": "경기 화성시 동부대로 1062, 607동 107,108호 (동탄역동원로얄듀크비스타3차)",
      "SAUP_PHONE": "010-4071-6942",
      "SALE_DATE_FMT": "2026-04-15",
      "SALE_DATE_RAW": "",
      "LAT": 37.1963788,
      "LNG": 127.0889658,
      "DONG": "동탄6동",
      "BAG_TYPES": [
        "소각용 50L",
        "소각용 75L"
      ],
      "SALE_DATE": "20260415"
    },
    {
      "SHOP_NAME": "이마트24 동탄역파라곤점",
      "SAUP_ADDR": "경기도 화성시 동탄기흥로 393-20 (오산동, 동탄역 파라곤) 1층 148호",
      "SAUP_PHONE": "010-8845-8613",
      "SALE_DATE_FMT": "2026-04-15",
      "SALE_DATE_RAW": "",
      "LAT": 37.1963449,
      "LNG": 127.0907601,
      "DONG": "동탄6동",
      "BAG_TYPES": [
        "소각용 50L",
        "소각용 75L"
      ],
      "SALE_DATE": "20260415"
    },
    {
      "SHOP_NAME": "씨유 동탄역앨리스빌점",
      "SAUP_ADDR": "경기도 화성시 동탄역로 102 (오산동, 동탄역 린스트라우스) 1001호",
      "SAUP_PHONE": "010-4187-4013",
      "SALE_DATE_FMT": "2026-04-09",
      "SALE_DATE_RAW": "",
      "LAT": 37.1962301,
      "LNG": 127.0974054,
      "DONG": "동탄6동",
      "BAG_TYPES": [
        "소각용 50L",
        "소각용 75L"
      ],
      "SALE_DATE": "20260409"
    },
    {
      "SHOP_NAME": "씨스페이스 동탄점",
      "SAUP_ADDR": "경기도 화성시 동탄역로 102 (오산동, 동탄역 린스트라우스) 1064호",
      "SAUP_PHONE": "010-3730-7063",
      "SALE_DATE_FMT": "2026-04-16",
      "SALE_DATE_RAW": "",
      "LAT": 37.19623,
      "LNG": 127.0974054,
      "DONG": "동탄6동",
      "BAG_TYPES": [
        "소각용 50L",
        "소각용 75L"
      ],
      "SALE_DATE": "20260416"
    },
    {
      "SHOP_NAME": "GS25 뉴동탄칸타빌점",
      "SAUP_ADDR": "경기도 화성시 동탄순환대로22길 14 (청계동, 동탄역 대원칸타빌 포레지움)",
      "SAUP_PHONE": "010-9780-1038",
      "SALE_DATE_FMT": "2026-04-09",
      "SALE_DATE_RAW": "",
      "LAT": 37.1957146,
      "LNG": 127.1213889,
      "DONG": "동탄6동",
      "BAG_TYPES": [
        "소각용 50L",
        "소각용 75L"
      ],
      "SALE_DATE": "20260409"
    },
    {
      "SHOP_NAME": "세븐일레븐 동탄역반도유보라점",
      "SAUP_ADDR": "경기도 화성시 동탄기흥로 393-15(오산동, 동탄역 반도유보라 아이비파크 5.0) B1 104,105호",
      "SAUP_PHONE": "010-3706-9037",
      "SALE_DATE_FMT": "2026-04-15",
      "SALE_DATE_RAW": "",
      "LAT": 37.1951499,
      "LNG": 127.0910706,
      "DONG": "동탄6동",
      "BAG_TYPES": [
        "소각용 50L",
        "소각용 75L"
      ],
      "SALE_DATE": "20260415"
    },
    {
      "SHOP_NAME": "한아름마트",
      "SAUP_ADDR": "경기도 화성시 동탄순환대로21길 15 (청계동, 동탄역 신안인스빌리베라) 109,110호",
      "SAUP_PHONE": "010-4260-7851",
      "SALE_DATE_FMT": "2026-04-09",
      "SALE_DATE_RAW": "",
      "LAT": 37.1940339,
      "LNG": 127.1178125,
      "DONG": "동탄6동",
      "BAG_TYPES": [
        "소각용 50L",
        "소각용 75L"
      ],
      "SALE_DATE": "20260409"
    },
    {
      "SHOP_NAME": "세븐일레븐 동탄신안점",
      "SAUP_ADDR": "경기도 화성시 동탄순환대로21길 15 (청계동, 동탄역 신안인스빌리베라) 101,102호",
      "SAUP_PHONE": "010-4562-2513",
      "SALE_DATE_FMT": "2026-03-26",
      "SALE_DATE_RAW": "",
      "LAT": 37.1940339,
      "LNG": 127.1178125,
      "DONG": "동탄6동",
      "BAG_TYPES": [
        "소각용 50L",
        "소각용 75L"
      ],
      "SALE_DATE": "20260326"
    },
    {
      "SHOP_NAME": "로얄패밀리(주)",
      "SAUP_ADDR": "경기도 화성시 동탄대로 446(청계동) 1077호",
      "SAUP_PHONE": "010-7156-2107",
      "SALE_DATE_FMT": "2026-04-16",
      "SALE_DATE_RAW": "",
      "LAT": 37.1934197,
      "LNG": 127.1000381,
      "DONG": "동탄6동",
      "BAG_TYPES": [
        "소각용 50L",
        "소각용 75L"
      ],
      "SALE_DATE": "20260416"
    },
    {
      "SHOP_NAME": "GS더프레시 동탄목동점",
      "SAUP_ADDR": "동탄순환대로20길 31, 106~110호",
      "SAUP_PHONE": "010-2392-1710",
      "SALE_DATE_FMT": "2026-04-16",
      "SALE_DATE_RAW": "",
      "LAT": 37.1922842,
      "LNG": 127.1267499,
      "DONG": "동탄6동",
      "BAG_TYPES": [
        "소각용 50L",
        "소각용 75L"
      ],
      "SALE_DATE": "20260416"
    },
    {
      "SHOP_NAME": "GS25 동탄헤리엇점",
      "SAUP_ADDR": "경기도 화성시 동탄역로 54 (오산동, 동탄역 헤리엇) 1138호,1139호",
      "SAUP_PHONE": "010-7178-1684",
      "SALE_DATE_FMT": "2026-04-16",
      "SALE_DATE_RAW": "",
      "LAT": 37.1915841,
      "LNG": 127.0978065,
      "DONG": "동탄6동",
      "BAG_TYPES": [
        "소각용 50L",
        "소각용 75L"
      ],
      "SALE_DATE": "20260416"
    },
    {
      "SHOP_NAME": "씨유 동탄목동점",
      "SAUP_ADDR": "동탄순환대로20길 13,상가동 101호(목동 21단지 LH",
      "SAUP_PHONE": "010-8424-9112",
      "SALE_DATE_FMT": "2026-04-16",
      "SALE_DATE_RAW": "",
      "LAT": 37.1913906,
      "LNG": 127.1239092,
      "DONG": "동탄6동",
      "BAG_TYPES": [
        "소각용 50L",
        "소각용 75L"
      ],
      "SALE_DATE": "20260416"
    },
    {
      "SHOP_NAME": "씨유 동탄더샵점",
      "SAUP_ADDR": "동탄감배산로 19, 상가동 105호 106호",
      "SAUP_PHONE": "010-5022-4172",
      "SALE_DATE_FMT": "2026-04-15",
      "SALE_DATE_RAW": "",
      "LAT": 37.18903,
      "LNG": 127.0894517,
      "DONG": "동탄6동",
      "BAG_TYPES": [
        "소각용 50L",
        "소각용 75L"
      ],
      "SALE_DATE": "20260415"
    },
    {
      "SHOP_NAME": "GS25 동탄행복점",
      "SAUP_ADDR": "동탄순환대로20길 69, 102호 103호",
      "SAUP_PHONE": "010-9066-7373",
      "SALE_DATE_FMT": "2026-04-16",
      "SALE_DATE_RAW": "",
      "LAT": 37.1863056,
      "LNG": 127.1274132,
      "DONG": "동탄6동",
      "BAG_TYPES": [
        "소각용 50L",
        "소각용 75L"
      ],
      "SALE_DATE": "20260416"
    },
    {
      "SHOP_NAME": "씨유 동탄스위트점",
      "SAUP_ADDR": "경기도 화성시 동탄대로14길 5-33 (오산동) 102호",
      "SAUP_PHONE": "010-9125-3467",
      "SALE_DATE_FMT": "2026-04-16",
      "SALE_DATE_RAW": "",
      "LAT": 37.1852229,
      "LNG": 127.1032778,
      "DONG": "동탄6동",
      "BAG_TYPES": [
        "소각용 50L",
        "소각용 75L"
      ],
      "SALE_DATE": "20260416"
    },
    {
      "SHOP_NAME": "GS25 동탄목동점",
      "SAUP_ADDR": "동탄순환대로 19길 59,402",
      "SAUP_PHONE": "010-5331-2654",
      "SALE_DATE_FMT": "2026-04-16",
      "SALE_DATE_RAW": "",
      "LAT": 37.1846784,
      "LNG": 127.1206865,
      "DONG": "동탄6동",
      "BAG_TYPES": [
        "소각용 50L",
        "소각용 75L"
      ],
      "SALE_DATE": "20260416"
    },
    {
      "SHOP_NAME": "GS25 동탄신리천점",
      "SAUP_ADDR": "동탄대로14길 20,",
      "SAUP_PHONE": "010-3137-7903",
      "SALE_DATE_FMT": "2026-04-16",
      "SALE_DATE_RAW": "",
      "LAT": 37.1845784,
      "LNG": 127.1031034,
      "DONG": "동탄6동",
      "BAG_TYPES": [
        "소각용 50L",
        "소각용 75L"
      ],
      "SALE_DATE": "20260416"
    },
    {
      "SHOP_NAME": "세븐일레븐 동탄목동",
      "SAUP_ADDR": "동탄순환대로18길 16, 1층 107호",
      "SAUP_PHONE": "010-2561-4623",
      "SALE_DATE_FMT": "2026-04-16",
      "SALE_DATE_RAW": "",
      "LAT": 37.1831218,
      "LNG": 127.1243232,
      "DONG": "동탄6동",
      "BAG_TYPES": [
        "소각용 50L",
        "소각용 75L"
      ],
      "SALE_DATE": "20260416"
    },
    {
      "SHOP_NAME": "씨유 동탄유보라점",
      "SAUP_ADDR": "경기도 화성시 동탄대로12길 17(오산동, 반도유보라 아이비파크 3) 101호",
      "SAUP_PHONE": "010-6263-8978",
      "SALE_DATE_FMT": "2026-04-16",
      "SALE_DATE_RAW": "",
      "LAT": 37.1821284,
      "LNG": 127.1053013,
      "DONG": "동탄6동",
      "BAG_TYPES": [
        "소각용 50L",
        "소각용 75L"
      ],
      "SALE_DATE": "20260416"
    },
    {
      "SHOP_NAME": "GS슈퍼 화성오산점",
      "SAUP_ADDR": "동탄대로12길 64 금강펜테리움 센트럴파크단지내상가 101호~105호",
      "SAUP_PHONE": "010-2045-6616",
      "SALE_DATE_FMT": "2026-04-16",
      "SALE_DATE_RAW": "",
      "LAT": 37.1806228,
      "LNG": 127.1088121,
      "DONG": "동탄6동",
      "BAG_TYPES": [
        "소각용 50L",
        "소각용 75L"
      ],
      "SALE_DATE": "20260416"
    },
    {
      "SHOP_NAME": "농민마트 산척동",
      "SAUP_ADDR": "동탄산척로2나길 6-10,1층 101호",
      "SAUP_PHONE": "010-5313-8646",
      "SALE_DATE_FMT": "2026-04-16",
      "SALE_DATE_RAW": "",
      "LAT": 37.1747396,
      "LNG": 127.1138946,
      "DONG": "동탄6동",
      "BAG_TYPES": [
        "소각용 50L",
        "소각용 75L"
      ],
      "SALE_DATE": "20260416"
    },
    {
      "SHOP_NAME": "GS25 동탄호반써밋점",
      "SAUP_ADDR": "경기도 화성시 동탄신리천로4길 48(신동) 107,108호",
      "SAUP_PHONE": "010-2878-3353",
      "SALE_DATE_FMT": "2026-04-16",
      "SALE_DATE_RAW": "",
      "LAT": 37.1745952,
      "LNG": 127.1338646,
      "DONG": "동탄6동",
      "BAG_TYPES": [
        "소각용 50L",
        "소각용 75L"
      ],
      "SALE_DATE": "20260416"
    },
    {
      "SHOP_NAME": "씨유 동탄호수부영점",
      "SAUP_ADDR": "동탄순환대로 253, 116호",
      "SAUP_PHONE": "010-6297-1501",
      "SALE_DATE_FMT": "2026-04-16",
      "SALE_DATE_RAW": "",
      "LAT": 37.1702673,
      "LNG": 127.1183908,
      "DONG": "동탄6동",
      "BAG_TYPES": [
        "소각용 50L",
        "소각용 75L"
      ],
      "SALE_DATE": "20260416"
    },
    {
      "SHOP_NAME": "이마트24 동탄호수공원점",
      "SAUP_ADDR": "동탄대로6길 17, 1층 104호",
      "SAUP_PHONE": "010-5258-0198",
      "SALE_DATE_FMT": "2026-04-16",
      "SALE_DATE_RAW": "",
      "LAT": 37.168718,
      "LNG": 127.10873,
      "DONG": "동탄6동",
      "BAG_TYPES": [
        "소각용 50L",
        "소각용 75L"
      ],
      "SALE_DATE": "20260416"
    },
    {
      "SHOP_NAME": "GS25 동탄호수길",
      "SAUP_ADDR": "경기도 화성시 동탄대로6길 84 (산척동, 더레이크시티부영6단지) 상가동 1층 101호",
      "SAUP_PHONE": "010-3205-7455",
      "SALE_DATE_FMT": "2026-04-16",
      "SALE_DATE_RAW": "",
      "LAT": 37.1677508,
      "LNG": 127.1157473,
      "DONG": "동탄6동",
      "BAG_TYPES": [
        "소각용 50L",
        "소각용 75L"
      ],
      "SALE_DATE": "20260416"
    },
    {
      "SHOP_NAME": "씨유 동탄레이크시티",
      "SAUP_ADDR": "동탄순환대로 127-17 107호",
      "SAUP_PHONE": "010-4399-2274",
      "SALE_DATE_FMT": "2026-04-16",
      "SALE_DATE_RAW": "",
      "LAT": 37.1669608,
      "LNG": 127.1072712,
      "DONG": "동탄6동",
      "BAG_TYPES": [
        "소각용 50L",
        "소각용 75L"
      ],
      "SALE_DATE": "20260416"
    },
    {
      "SHOP_NAME": "GS25 동탄호수중앙점",
      "SAUP_ADDR": "경기도 화성시 동탄구 동탄순환대로3길 27-39 (송동)",
      "SAUP_PHONE": "010-5050-4189",
      "SALE_DATE_FMT": "2026-04-16",
      "SALE_DATE_RAW": "",
      "LAT": 37.1665566,
      "LNG": 127.0956557,
      "DONG": "동탄6동",
      "BAG_TYPES": [
        "소각용 50L"
      ],
      "SALE_DATE": "20260416"
    },
    {
      "SHOP_NAME": "GS더프레시 동탄반도유보라점",
      "SAUP_ADDR": "경기도 화성시 동탄순환대로10길 88 (산척동, 레이크힐 반도유보라 아이비파크 10.2) B145호",
      "SAUP_PHONE": "010-8264-3146",
      "SALE_DATE_FMT": "2026-04-16",
      "SALE_DATE_RAW": "",
      "LAT": 37.1651982,
      "LNG": 127.1293208,
      "DONG": "동탄6동",
      "BAG_TYPES": [
        "소각용 50L",
        "소각용 75L"
      ],
      "SALE_DATE": "20260416"
    },
    {
      "SHOP_NAME": "세븐일레븐 동탄금호점",
      "SAUP_ADDR": "동탄대로4길 17,단지상가102호",
      "SAUP_PHONE": "010-3366-7111",
      "SALE_DATE_FMT": "2026-04-16",
      "SALE_DATE_RAW": "",
      "LAT": 37.1632274,
      "LNG": 127.1076624,
      "DONG": "동탄6동",
      "BAG_TYPES": [
        "소각용 50L",
        "소각용 75L"
      ],
      "SALE_DATE": "20260416"
    },
    {
      "SHOP_NAME": "씨유 화성산단점",
      "SAUP_ADDR": "동탄기흥로 41, 101호",
      "SAUP_PHONE": "010-3239-3648",
      "SALE_DATE_FMT": "2026-04-15",
      "SALE_DATE_RAW": "",
      "LAT": 0.0,
      "LNG": 0.0,
      "DONG": "동탄6동",
      "BAG_TYPES": [
        "소각용 50L",
        "소각용 75L"
      ],
      "SALE_DATE": "20260415"
    },
    {
      "SHOP_NAME": "쌩쌩마트",
      "SAUP_ADDR": "동탄대로시범길 20, 제지1층, 제116호, 116-1호",
      "SAUP_PHONE": "010-3804-1454",
      "SALE_DATE_FMT": "2026-04-16",
      "SALE_DATE_RAW": "",
      "LAT": 0.0,
      "LNG": 0.0,
      "DONG": "동탄6동",
      "BAG_TYPES": [
        "소각용 50L",
        "소각용 75L"
      ],
      "SALE_DATE": "20260416"
    },
    {
      "SHOP_NAME": "GS25 동탄카림점",
      "SAUP_ADDR": "경기도 화성시 동탄대로시범길 134(청계동, 동탄역시범반도유보라아이비파크4.0) 1081,1082호",
      "SAUP_PHONE": "010-5066-6364",
      "SALE_DATE_FMT": "2026-03-19",
      "SALE_DATE_RAW": "",
      "LAT": 37.1991579,
      "LNG": 127.1142801,
      "DONG": "동탄6동",
      "BAG_TYPES": [
        "소각용 75L"
      ],
      "SALE_DATE": "20260319"
    },
    {
      "SHOP_NAME": "GS25 동탄제이점",
      "SAUP_ADDR": "경기도 화성시 동탄산척로1길 35 (송동) 111~113호",
      "SAUP_PHONE": "010-3425-3323",
      "SALE_DATE_FMT": "2026-03-26",
      "SALE_DATE_RAW": "",
      "LAT": 37.1759431,
      "LNG": 127.1019735,
      "DONG": "동탄6동",
      "BAG_TYPES": [
        "소각용 75L"
      ],
      "SALE_DATE": "20260326"
    },
    {
      "SHOP_NAME": "노브랜드 화성동탄리치안점",
      "SAUP_ADDR": "경기도 화성시 동탄순환대로 263 (산척동) 지하1층",
      "SAUP_PHONE": "378-6879",
      "SALE_DATE_FMT": "2026-02-12",
      "SALE_DATE_RAW": "",
      "LAT": 37.1711566,
      "LNG": 127.1185695,
      "DONG": "동탄6동",
      "BAG_TYPES": [
        "소각용 75L"
      ],
      "SALE_DATE": "20260212"
    },
    {
      "SHOP_NAME": "이마트24 동탄치동천점",
      "SAUP_ADDR": "경기도 화성시 동탄치동천로4길 6-50 (영천동)",
      "SAUP_PHONE": "010-6239-2590",
      "SALE_DATE_FMT": "2026-04-16",
      "SALE_DATE_RAW": "",
      "LAT": 37.2030694,
      "LNG": 127.1277391,
      "DONG": "동탄7동",
      "BAG_TYPES": [
        "소각용 50L"
      ],
      "SALE_DATE": "20260416"
    },
    {
      "SHOP_NAME": "씨유 동탄호반점",
      "SAUP_ADDR": "경기도 화성시 동탄순환대로20길 104 (목동, 동탄2신도시 호반베르디움 22단지)",
      "SAUP_PHONE": "010-3193-8403",
      "SALE_DATE_FMT": "2026-04-16",
      "SALE_DATE_RAW": "",
      "LAT": 37.1843798,
      "LNG": 127.1243697,
      "DONG": "동탄7동",
      "BAG_TYPES": [
        "소각용 50L",
        "소각용 75L"
      ],
      "SALE_DATE": "20260416"
    },
    {
      "SHOP_NAME": "세븐일레븐 동탄센터점",
      "SAUP_ADDR": "경기도 화성시 지산1길 11-10 (영천동) 1층",
      "SAUP_PHONE": "010-3306-5651",
      "SALE_DATE_FMT": "2026-04-16",
      "SALE_DATE_RAW": "",
      "LAT": 37.2072444,
      "LNG": 127.1115486,
      "DONG": "동탄7동",
      "BAG_TYPES": [
        "소각용 50L",
        "소각용 75L"
      ],
      "SALE_DATE": "20260416"
    },
    {
      "SHOP_NAME": "GS25 동탄리슈빌점",
      "SAUP_ADDR": "경기도 화성시 동탄순환대로 689 (영천동) 111호",
      "SAUP_PHONE": "010-6285-2451",
      "SALE_DATE_FMT": "2026-04-16",
      "SALE_DATE_RAW": "",
      "LAT": 37.206243,
      "LNG": 127.1107298,
      "DONG": "동탄7동",
      "BAG_TYPES": [
        "소각용 50L",
        "소각용 75L"
      ],
      "SALE_DATE": "20260416"
    },
    {
      "SHOP_NAME": "씨유 동탄실리콘앨리점",
      "SAUP_ADDR": "경기도 화성시 동탄영천로 150 (영천동) S동 1층 117호",
      "SAUP_PHONE": "010-7285-7210",
      "SALE_DATE_FMT": "2026-04-16",
      "SALE_DATE_RAW": "",
      "LAT": 37.2159295,
      "LNG": 127.1018182,
      "DONG": "동탄7동",
      "BAG_TYPES": [
        "소각용 50L",
        "소각용 75L"
      ],
      "SALE_DATE": "20260416"
    },
    {
      "SHOP_NAME": "씨유 동탄골든아이타워점",
      "SAUP_ADDR": "경기도 화성시 동탄기흥로 570-6 (영천동) 110호",
      "SAUP_PHONE": "010-5324-5252",
      "SALE_DATE_FMT": "2026-04-09",
      "SALE_DATE_RAW": "",
      "LAT": 37.2109807,
      "LNG": 127.093348,
      "DONG": "동탄7동",
      "BAG_TYPES": [
        "소각용 50L",
        "소각용 75L"
      ],
      "SALE_DATE": "20260409"
    },
    {
      "SHOP_NAME": "GS25 동탄일등점",
      "SAUP_ADDR": "경기도 화성시 동탄기흥로520번나길 2 (영천동) 1층1호,4호",
      "SAUP_PHONE": "010-4912-6201",
      "SALE_DATE_FMT": "2026-04-16",
      "SALE_DATE_RAW": "",
      "LAT": 37.2069202,
      "LNG": 127.0932895,
      "DONG": "동탄7동",
      "BAG_TYPES": [
        "소각용 50L",
        "소각용 75L"
      ],
      "SALE_DATE": "20260416"
    },
    {
      "SHOP_NAME": "세븐일레븐 동탄비즈타워점",
      "SAUP_ADDR": "경기도 화성시 동탄첨단산업1로 63-12 (영천동) 동탄비즈타워 125호",
      "SAUP_PHONE": "010-6780-0153",
      "SALE_DATE_FMT": "2026-04-16",
      "SALE_DATE_RAW": "",
      "LAT": 37.2155079,
      "LNG": 127.0929121,
      "DONG": "동탄7동",
      "BAG_TYPES": [
        "소각용 50L",
        "소각용 75L"
      ],
      "SALE_DATE": "20260416"
    },
    {
      "SHOP_NAME": "GS25 동탄타워점",
      "SAUP_ADDR": "경기도 화성시 동탄첨단산업1로 27 (영천동) A동 M2호",
      "SAUP_PHONE": "010-3378-8043",
      "SALE_DATE_FMT": "2026-04-16",
      "SALE_DATE_RAW": "",
      "LAT": 37.2108918,
      "LNG": 127.0897982,
      "DONG": "동탄7동",
      "BAG_TYPES": [
        "소각용 50L",
        "소각용 75L"
      ],
      "SALE_DATE": "20260416"
    },
    {
      "SHOP_NAME": "GS슈퍼 동탄영천점",
      "SAUP_ADDR": "동탄대로24가길 7, 상가동 102~106호",
      "SAUP_PHONE": "010-4067-6952",
      "SALE_DATE_FMT": "2026-04-16",
      "SALE_DATE_RAW": "",
      "LAT": 37.2180025,
      "LNG": 127.1105248,
      "DONG": "동탄7동",
      "BAG_TYPES": [
        "소각용 50L",
        "소각용 75L"
      ],
      "SALE_DATE": "20260416"
    },
    {
      "SHOP_NAME": "씨유 동탄행복점",
      "SAUP_ADDR": "동탄대로24가길 27, 상가동 101호,102호",
      "SAUP_PHONE": "010-3145-2250",
      "SALE_DATE_FMT": "2026-04-16",
      "SALE_DATE_RAW": "",
      "LAT": 37.2176206,
      "LNG": 127.1150092,
      "DONG": "동탄7동",
      "BAG_TYPES": [
        "소각용 50L",
        "소각용 75L"
      ],
      "SALE_DATE": "20260416"
    },
    {
      "SHOP_NAME": "씨유 동탄로얄듀크점",
      "SAUP_ADDR": "경기도 화성시 동탄구 동탄첨단산업2로 88 (영천동, 동탄2신도시 4차 동원로얄듀크포레) 107,108호",
      "SAUP_PHONE": "010-8848-8127",
      "SALE_DATE_FMT": "2026-04-16",
      "SALE_DATE_RAW": "",
      "LAT": 37.2161781,
      "LNG": 127.1054972,
      "DONG": "동탄7동",
      "BAG_TYPES": [
        "소각용 50L",
        "소각용 75L"
      ],
      "SALE_DATE": "20260416"
    },
    {
      "SHOP_NAME": "GS25 동탄타운점",
      "SAUP_ADDR": "경기도 화성시 동탄대로24가길 30(영천동, 동탄 파크 한양수자인) 101~102호",
      "SAUP_PHONE": "010-8009-4247",
      "SALE_DATE_FMT": "2026-04-16",
      "SALE_DATE_RAW": "",
      "LAT": 37.2160201,
      "LNG": 127.1136059,
      "DONG": "동탄7동",
      "BAG_TYPES": [
        "소각용 50L",
        "소각용 75L"
      ],
      "SALE_DATE": "20260416"
    },
    {
      "SHOP_NAME": "GS25 실리콘앨리점",
      "SAUP_ADDR": "경기도 화성시 동탄영천로 150 (영천동) S01-0139호",
      "SAUP_PHONE": "010-3913-5908",
      "SALE_DATE_FMT": "2026-04-16",
      "SALE_DATE_RAW": "",
      "LAT": 37.2159295,
      "LNG": 127.1018182,
      "DONG": "동탄7동",
      "BAG_TYPES": [
        "소각용 50L",
        "소각용 75L"
      ],
      "SALE_DATE": "20260416"
    },
    {
      "SHOP_NAME": "GS25 동탄줌타워",
      "SAUP_ADDR": "경기도 화성시 동탄대로 700(영천동) 145,146호",
      "SAUP_PHONE": "010-4445-2324",
      "SALE_DATE_FMT": "2026-03-26",
      "SALE_DATE_RAW": "",
      "LAT": 37.2147893,
      "LNG": 127.1025531,
      "DONG": "동탄7동",
      "BAG_TYPES": [
        "소각용 50L",
        "소각용 75L"
      ],
      "SALE_DATE": "20260326"
    },
    {
      "SHOP_NAME": "씨유 동탄더퍼스트점",
      "SAUP_ADDR": "경기도 화성시 동탄기흥로 602 (영천동) 1층 103,104호",
      "SAUP_PHONE": "010-2225-6717",
      "SALE_DATE_FMT": "2026-04-16",
      "SALE_DATE_RAW": "",
      "LAT": 37.2140562,
      "LNG": 127.094899,
      "DONG": "동탄7동",
      "BAG_TYPES": [
        "소각용 50L",
        "소각용 75L"
      ],
      "SALE_DATE": "20260416"
    },
    {
      "SHOP_NAME": "세븐일레븐 동탄M타워",
      "SAUP_ADDR": "경기도 화성시 동탄첨단산업1로 51-9(영천동) 1층 132호",
      "SAUP_PHONE": "010-8895-7357",
      "SALE_DATE_FMT": "2026-04-16",
      "SALE_DATE_RAW": "",
      "LAT": 37.2140191,
      "LNG": 127.0902577,
      "DONG": "동탄7동",
      "BAG_TYPES": [
        "소각용 50L",
        "소각용 75L"
      ],
      "SALE_DATE": "20260416"
    },
    {
      "SHOP_NAME": "씨유 동탄퍼스트코리아점",
      "SAUP_ADDR": "동탄첨단산업1로 58, 105호",
      "SAUP_PHONE": "010-8019-8245",
      "SALE_DATE_FMT": "2026-04-16",
      "SALE_DATE_RAW": "",
      "LAT": 37.2139388,
      "LNG": 127.0919903,
      "DONG": "동탄7동",
      "BAG_TYPES": [
        "소각용 50L",
        "소각용 75L"
      ],
      "SALE_DATE": "20260416"
    },
    {
      "SHOP_NAME": "씨유 동탄비전IT타워점",
      "SAUP_ADDR": "경기도 화성시 동탄대로 677-5 (영천동) 109호",
      "SAUP_PHONE": "010-8440-4915",
      "SALE_DATE_FMT": "2026-04-16",
      "SALE_DATE_RAW": "",
      "LAT": 37.2139143,
      "LNG": 127.0997226,
      "DONG": "동탄7동",
      "BAG_TYPES": [
        "소각용 50L",
        "소각용 75L"
      ],
      "SALE_DATE": "20260416"
    },
    {
      "SHOP_NAME": "이마트24 동탄더큐브온에어점",
      "SAUP_ADDR": "경기도 화성시 동탄구 동탄대로23안길 31 (영천동)",
      "SAUP_PHONE": "010-9054-7692",
      "SALE_DATE_FMT": "2026-04-16",
      "SALE_DATE_RAW": "",
      "LAT": 37.2138121,
      "LNG": 127.0985654,
      "DONG": "동탄7동",
      "BAG_TYPES": [
        "소각용 50L",
        "소각용 75L"
      ],
      "SALE_DATE": "20260416"
    },
    {
      "SHOP_NAME": "씨유 동탄G타워점",
      "SAUP_ADDR": "경기도 화성시 동탄첨단산업2로 43 (영천동) 121호",
      "SAUP_PHONE": "010-9165-5304",
      "SALE_DATE_FMT": "2026-04-16",
      "SALE_DATE_RAW": "",
      "LAT": 37.2136685,
      "LNG": 127.1015392,
      "DONG": "동탄7동",
      "BAG_TYPES": [
        "소각용 50L",
        "소각용 75L"
      ],
      "SALE_DATE": "20260416"
    },
    {
      "SHOP_NAME": "세븐일레븐 동탄멀티점",
      "SAUP_ADDR": "경기도 화성시 동탄대로 676 (영천동) B128,B129호",
      "SAUP_PHONE": "010-2010-4589",
      "SALE_DATE_FMT": "2026-04-16",
      "SALE_DATE_RAW": "",
      "LAT": 37.2128827,
      "LNG": 127.1006818,
      "DONG": "동탄7동",
      "BAG_TYPES": [
        "소각용 50L",
        "소각용 75L"
      ],
      "SALE_DATE": "20260416"
    },
    {
      "SHOP_NAME": "이마트24 동탄역멀티플라이어점",
      "SAUP_ADDR": "경기도 화성시 동탄대로 676 (영천동) 지1층 B108호",
      "SAUP_PHONE": "010-9249-9692",
      "SALE_DATE_FMT": "2026-04-16",
      "SALE_DATE_RAW": "",
      "LAT": 37.2128827,
      "LNG": 127.1006818,
      "DONG": "동탄7동",
      "BAG_TYPES": [
        "소각용 50L",
        "소각용 75L"
      ],
      "SALE_DATE": "20260416"
    },
    {
      "SHOP_NAME": "씨유 동탄마스터점",
      "SAUP_ADDR": "경기도 화성시 동탄대로23안길 30 (영천동, 동탄역 금강펜테리움 더 시글로) 103호104호",
      "SAUP_PHONE": "010-8828-7101",
      "SALE_DATE_FMT": "2026-04-16",
      "SALE_DATE_RAW": "",
      "LAT": 37.2128585,
      "LNG": 127.0985867,
      "DONG": "동탄7동",
      "BAG_TYPES": [
        "소각용 50L",
        "소각용 75L"
      ],
      "SALE_DATE": "20260416"
    },
    {
      "SHOP_NAME": "세븐일레븐 동탄역힐스테이트점",
      "SAUP_ADDR": "경기도 화성시 동탄기흥로 585 (영천동, 힐스테이트 동탄역) 122,123호",
      "SAUP_PHONE": "010-7140-3769",
      "SALE_DATE_FMT": "2026-04-16",
      "SALE_DATE_RAW": "",
      "LAT": 37.2126762,
      "LNG": 127.0925418,
      "DONG": "동탄7동",
      "BAG_TYPES": [
        "소각용 50L",
        "소각용 75L"
      ],
      "SALE_DATE": "20260416"
    },
    {
      "SHOP_NAME": "씨유 동탄희망1호점",
      "SAUP_ADDR": "경기도 화성시 동탄영천로 108-21 (영천동) S001동 7,8호",
      "SAUP_PHONE": "010-9095-6418",
      "SALE_DATE_FMT": "2026-04-16",
      "SALE_DATE_RAW": "",
      "LAT": 37.2125261,
      "LNG": 127.1042016,
      "DONG": "동탄7동",
      "BAG_TYPES": [
        "소각용 50L"
      ],
      "SALE_DATE": "20260416"
    },
    {
      "SHOP_NAME": "자이마트",
      "SAUP_ADDR": "경기도 화성시 동탄대로24길 117(영천동, 동탄파크자이) 제지2층 26,27호",
      "SAUP_PHONE": "010-8874-6267",
      "SALE_DATE_FMT": "2026-04-16",
      "SALE_DATE_RAW": "",
      "LAT": 37.2122971,
      "LNG": 127.1130789,
      "DONG": "동탄7동",
      "BAG_TYPES": [
        "소각용 50L",
        "소각용 75L"
      ],
      "SALE_DATE": "20260416"
    },
    {
      "SHOP_NAME": "GS25 동탄파크점",
      "SAUP_ADDR": "동탄대로24길 117, 상가 41호",
      "SAUP_PHONE": "010-9027-6692",
      "SALE_DATE_FMT": "2026-04-16",
      "SALE_DATE_RAW": "",
      "LAT": 37.2121792,
      "LNG": 127.1131956,
      "DONG": "동탄7동",
      "BAG_TYPES": [
        "소각용 50L",
        "소각용 75L"
      ],
      "SALE_DATE": "20260416"
    },
    {
      "SHOP_NAME": "이마트24 동탄이든앤스페이스점",
      "SAUP_ADDR": "경기도 화성시 동탄영천로 105 (영천동) 지하 112,113호",
      "SAUP_PHONE": "010-4248-5123",
      "SALE_DATE_FMT": "2026-04-16",
      "SALE_DATE_RAW": "",
      "LAT": 37.2120629,
      "LNG": 127.1028709,
      "DONG": "동탄7동",
      "BAG_TYPES": [
        "소각용 50L",
        "소각용 75L"
      ],
      "SALE_DATE": "20260416"
    },
    {
      "SHOP_NAME": "GS25 동탄에이스점",
      "SAUP_ADDR": "경기도 화성시 동탄영천로 108-10(영천동, 동탄2 LH2단지) 10호",
      "SAUP_PHONE": "010-4745-2780",
      "SALE_DATE_FMT": "2026-04-16",
      "SALE_DATE_RAW": "",
      "LAT": 37.2119044,
      "LNG": 127.1055671,
      "DONG": "동탄7동",
      "BAG_TYPES": [
        "소각용 50L",
        "소각용 75L"
      ],
      "SALE_DATE": "20260416"
    },
    {
      "SHOP_NAME": "GS25 동탄푸르지오",
      "SAUP_ADDR": "동탄순환대로26길 81, B207호",
      "SAUP_PHONE": "010-8869-6681",
      "SALE_DATE_FMT": "2026-04-16",
      "SALE_DATE_RAW": "",
      "LAT": 37.2112846,
      "LNG": 127.1201123,
      "DONG": "동탄7동",
      "BAG_TYPES": [
        "소각용 50L",
        "소각용 75L"
      ],
      "SALE_DATE": "20260416"
    },
    {
      "SHOP_NAME": "이마트24 R동탄우미뉴브점",
      "SAUP_ADDR": "경기도 화성시 동탄대로23길 121 (영천동) 103,104호",
      "SAUP_PHONE": "010-7532-3928",
      "SALE_DATE_FMT": "2026-04-16",
      "SALE_DATE_RAW": "",
      "LAT": 37.2109621,
      "LNG": 127.0969987,
      "DONG": "동탄7동",
      "BAG_TYPES": [
        "소각용 50L",
        "소각용 75L"
      ],
      "SALE_DATE": "20260416"
    },
    {
      "SHOP_NAME": "씨유 동탄삼성어반점",
      "SAUP_ADDR": "경기도 화성시 동탄대로 637(영천동)  1층 21호",
      "SAUP_PHONE": "010-6293-7505",
      "SALE_DATE_FMT": "2026-04-16",
      "SALE_DATE_RAW": "",
      "LAT": 37.2107875,
      "LNG": 127.0981372,
      "DONG": "동탄7동",
      "BAG_TYPES": [
        "소각용 50L",
        "소각용 75L"
      ],
      "SALE_DATE": "20260416"
    },
    {
      "SHOP_NAME": "GS25 동탄금강점",
      "SAUP_ADDR": "경기도 화성시 동탄첨단산업1로 27(영천동) 1층 94호, 95호",
      "SAUP_PHONE": "010-3885-7534",
      "SALE_DATE_FMT": "2026-04-16",
      "SALE_DATE_RAW": "",
      "LAT": 37.2107507,
      "LNG": 127.0898198,
      "DONG": "동탄7동",
      "BAG_TYPES": [
        "소각용 50L",
        "소각용 75L"
      ],
      "SALE_DATE": "20260416"
    },
    {
      "SHOP_NAME": "GS25 동탄메가점",
      "SAUP_ADDR": "경기도 화성시 동탄대로 636-3 (영천동) C동1층 101호",
      "SAUP_PHONE": "010-9585-6396",
      "SALE_DATE_FMT": "2026-04-16",
      "SALE_DATE_RAW": "",
      "LAT": 37.2104854,
      "LNG": 127.0996284,
      "DONG": "동탄7동",
      "BAG_TYPES": [
        "소각용 50L",
        "소각용 75L"
      ],
      "SALE_DATE": "20260416"
    },
    {
      "SHOP_NAME": "롯데프레시 동탄대로점",
      "SAUP_ADDR": "경기도 화성시 동탄대로 636-14(영천동, 동탄역 대방디엠시티 더 센텀) 107-114호",
      "SAUP_PHONE": "010-3745-4803",
      "SALE_DATE_FMT": "2026-04-16",
      "SALE_DATE_RAW": "",
      "LAT": 37.2104854,
      "LNG": 127.0996284,
      "DONG": "동탄7동",
      "BAG_TYPES": [
        "소각용 50L",
        "소각용 75L"
      ],
      "SALE_DATE": "20260416"
    },
    {
      "SHOP_NAME": "씨유 동탄대방디엠씨",
      "SAUP_ADDR": "경기도 화성시 동탄대로 636-14(영천동, 동탄역 대방디엠시티 더 센텀) 상가동 C101호",
      "SAUP_PHONE": "010-9276-0662",
      "SALE_DATE_FMT": "2026-04-16",
      "SALE_DATE_RAW": "",
      "LAT": 37.2104854,
      "LNG": 127.0996285,
      "DONG": "동탄7동",
      "BAG_TYPES": [
        "소각용 50L",
        "소각용 75L"
      ],
      "SALE_DATE": "20260416"
    },
    {
      "SHOP_NAME": "이마트24 동탄KTX밸리점",
      "SAUP_ADDR": "경기도 화성시 동탄첨단산업1로 14 (영천동)",
      "SAUP_PHONE": "010-3224-7503",
      "SALE_DATE_FMT": "2026-04-16",
      "SALE_DATE_RAW": "",
      "LAT": 37.2102459,
      "LNG": 127.0914028,
      "DONG": "동탄7동",
      "BAG_TYPES": [
        "소각용 50L",
        "소각용 75L"
      ],
      "SALE_DATE": "20260416"
    },
    {
      "SHOP_NAME": "씨유 동탄선납공원점",
      "SAUP_ADDR": "동탄순환대로30길 8-1, 상가동 101호",
      "SAUP_PHONE": "010-8848-8127",
      "SALE_DATE_FMT": "2026-04-16",
      "SALE_DATE_RAW": "",
      "LAT": 37.2100807,
      "LNG": 127.108447,
      "DONG": "동탄7동",
      "BAG_TYPES": [
        "소각용 50L",
        "소각용 75L"
      ],
      "SALE_DATE": "20260416"
    },
    {
      "SHOP_NAME": "GS25 동탄테크노점",
      "SAUP_ADDR": "동탄순환대로 830, 1층 135호",
      "SAUP_PHONE": "010-6267-5720",
      "SALE_DATE_FMT": "2026-04-16",
      "SALE_DATE_RAW": "",
      "LAT": 37.2099929,
      "LNG": 127.0970531,
      "DONG": "동탄7동",
      "BAG_TYPES": [
        "소각용 50L",
        "소각용 75L"
      ],
      "SALE_DATE": "20260416"
    },
    {
      "SHOP_NAME": "씨유 동탄다원점",
      "SAUP_ADDR": "경기도 화성시 동탄구 동탄영천로 81-5 (영천동) 106호",
      "SAUP_PHONE": "010-2352-0028",
      "SALE_DATE_FMT": "2026-04-16",
      "SALE_DATE_RAW": "",
      "LAT": 37.2096935,
      "LNG": 127.1027735,
      "DONG": "동탄7동",
      "BAG_TYPES": [
        "소각용 50L",
        "소각용 75L"
      ],
      "SALE_DATE": "20260416"
    },
    {
      "SHOP_NAME": "이마트24 동탄W프라자점",
      "SAUP_ADDR": "경기도 화성시 동탄순환대로 788(영천동)",
      "SAUP_PHONE": "010-6563-7763",
      "SALE_DATE_FMT": "2026-04-09",
      "SALE_DATE_RAW": "",
      "LAT": 37.2096737,
      "LNG": 127.1016635,
      "DONG": "동탄7동",
      "BAG_TYPES": [
        "소각용 50L",
        "소각용 75L"
      ],
      "SALE_DATE": "20260409"
    },
    {
      "SHOP_NAME": "씨유 동탄아이티타워",
      "SAUP_ADDR": "경기도 화성시 동탄순환대로 878(영천동) 1층 118호",
      "SAUP_PHONE": "010-2428-4714",
      "SALE_DATE_FMT": "2026-04-16",
      "SALE_DATE_RAW": "",
      "LAT": 37.2095401,
      "LNG": 127.0911009,
      "DONG": "동탄7동",
      "BAG_TYPES": [
        "소각용 50L",
        "소각용 75L"
      ],
      "SALE_DATE": "20260416"
    },
    {
      "SHOP_NAME": "반도마트",
      "SAUP_ADDR": "동탄순환대로 26길,55, 147동 1층 301호",
      "SAUP_PHONE": "010-6734-6889",
      "SALE_DATE_FMT": "2026-04-16",
      "SALE_DATE_RAW": "",
      "LAT": 37.2093662,
      "LNG": 127.1170304,
      "DONG": "동탄7동",
      "BAG_TYPES": [
        "소각용 50L"
      ],
      "SALE_DATE": "20260416"
    },
    {
      "SHOP_NAME": "GS25 동탄유보라점",
      "SAUP_ADDR": "경기도 화성시 동탄순환대로26길 55 (영천동, 동탄역반도유보라아이비파크2.0) 1층 203호",
      "SAUP_PHONE": "010-5879-8140",
      "SALE_DATE_FMT": "2026-04-16",
      "SALE_DATE_RAW": "",
      "LAT": 37.2093542,
      "LNG": 127.1169455,
      "DONG": "동탄7동",
      "BAG_TYPES": [
        "소각용 50L",
        "소각용 75L"
      ],
      "SALE_DATE": "20260416"
    },
    {
      "SHOP_NAME": "오피스디포 화성동부점",
      "SAUP_ADDR": "경기도 화성시 동탄순환대로 823 (영천동)",
      "SAUP_PHONE": "376-6413",
      "SALE_DATE_FMT": "2026-04-16",
      "SALE_DATE_RAW": "",
      "LAT": 37.2087497,
      "LNG": 127.0977077,
      "DONG": "동탄7동",
      "BAG_TYPES": [
        "소각용 50L",
        "소각용 75L"
      ],
      "SALE_DATE": "20260416"
    },
    {
      "SHOP_NAME": "씨유 동탄스마트리움점",
      "SAUP_ADDR": "경기도 화성시 동탄순환대로 725(영천동) 지하1층B 5,6,7호",
      "SAUP_PHONE": "010-4232-4246",
      "SALE_DATE_FMT": "2026-04-16",
      "SALE_DATE_RAW": "",
      "LAT": 37.2084914,
      "LNG": 127.1082367,
      "DONG": "동탄7동",
      "BAG_TYPES": [
        "소각용 50L",
        "소각용 75L"
      ],
      "SALE_DATE": "20260416"
    },
    {
      "SHOP_NAME": "씨유 동탄센트럴상록점",
      "SAUP_ADDR": "경기도 화성시 동탄대로22길 9 (영천동, 동탄역 센트럴 상록아파트) 106호",
      "SAUP_PHONE": "010-6332-1063",
      "SALE_DATE_FMT": "2026-03-26",
      "SALE_DATE_RAW": "",
      "LAT": 37.2083811,
      "LNG": 127.1010029,
      "DONG": "동탄7동",
      "BAG_TYPES": [
        "소각용 50L",
        "소각용 75L"
      ],
      "SALE_DATE": "20260326"
    },
    {
      "SHOP_NAME": "농협하나로유통 동탄유통센터",
      "SAUP_ADDR": "경기도 화성시 동탄순환대로27길 30 (영천동)",
      "SAUP_PHONE": "010-4012-0445",
      "SALE_DATE_FMT": "2026-04-16",
      "SALE_DATE_RAW": "",
      "LAT": 37.2082088,
      "LNG": 127.1055819,
      "DONG": "동탄7동",
      "BAG_TYPES": [
        "소각용 50L",
        "소각용 75L"
      ],
      "SALE_DATE": "20260416"
    },
    {
      "SHOP_NAME": "이마트24 동탄마크폴리스점",
      "SAUP_ADDR": "경기도 화성시 동탄순환대로27길 20 (영천동) 108호",
      "SAUP_PHONE": "010-6749-4183",
      "SALE_DATE_FMT": "2026-04-16",
      "SALE_DATE_RAW": "",
      "LAT": 37.2080225,
      "LNG": 127.1077128,
      "DONG": "동탄7동",
      "BAG_TYPES": [
        "소각용 50L",
        "소각용 75L"
      ],
      "SALE_DATE": "20260416"
    },
    {
      "SHOP_NAME": "세븐일레븐 동탄푸르지오2차점",
      "SAUP_ADDR": "경기도 화성시 동탄순환대로 881-10(영천동, 동탄역 푸르지오) 제728동 108,109호",
      "SAUP_PHONE": "010-8151-0168",
      "SALE_DATE_FMT": "2026-04-09",
      "SALE_DATE_RAW": "",
      "LAT": 37.207887,
      "LNG": 127.0897727,
      "DONG": "동탄7동",
      "BAG_TYPES": [
        "소각용 50L",
        "소각용 75L"
      ],
      "SALE_DATE": "20260409"
    },
    {
      "SHOP_NAME": "드림디포 동탄테크노점",
      "SAUP_ADDR": "동탄대로21길 10, 지하 113,114호",
      "SAUP_PHONE": "010-4014-1569",
      "SALE_DATE_FMT": "2026-04-16",
      "SALE_DATE_RAW": "",
      "LAT": 37.2078847,
      "LNG": 127.0977897,
      "DONG": "동탄7동",
      "BAG_TYPES": [
        "소각용 50L",
        "소각용 75L"
      ],
      "SALE_DATE": "20260416"
    },
    {
      "SHOP_NAME": "세븐일레븐 동탄하나점",
      "SAUP_ADDR": "경기도 화성시 동탄대로21가길 4-6 (영천동) 101호",
      "SAUP_PHONE": "010-9305-8089",
      "SALE_DATE_FMT": "2026-04-16",
      "SALE_DATE_RAW": "",
      "LAT": 37.207234,
      "LNG": 127.0976745,
      "DONG": "동탄7동",
      "BAG_TYPES": [
        "소각용 50L",
        "소각용 75L"
      ],
      "SALE_DATE": "20260416"
    },
    {
      "SHOP_NAME": "씨유 동탄영천점",
      "SAUP_ADDR": "경기도 화성시 동탄순환대로 697(영천동) 110~111호",
      "SAUP_PHONE": "010-8008-0558",
      "SALE_DATE_FMT": "2026-04-16",
      "SALE_DATE_RAW": "",
      "LAT": 37.206863,
      "LNG": 127.1102721,
      "DONG": "동탄7동",
      "BAG_TYPES": [
        "소각용 50L",
        "소각용 75L"
      ],
      "SALE_DATE": "20260416"
    },
    {
      "SHOP_NAME": "씨유 동탄애플점",
      "SAUP_ADDR": "경기도 화성시 동탄순환대로 690 (영천동) 1층,107",
      "SAUP_PHONE": "010-4739-9415",
      "SALE_DATE_FMT": "2026-04-16",
      "SALE_DATE_RAW": "",
      "LAT": 37.2065214,
      "LNG": 127.1115693,
      "DONG": "동탄7동",
      "BAG_TYPES": [
        "소각용 50L",
        "소각용 75L"
      ],
      "SALE_DATE": "20260416"
    },
    {
      "SHOP_NAME": "씨유 동탄센트럴자이점",
      "SAUP_ADDR": "경기도 화성시 동탄대로22길 30 (영천동, 동탄센트럴자이) 상가동 104호 105호",
      "SAUP_PHONE": "010-2352-0028",
      "SALE_DATE_FMT": "2026-04-16",
      "SALE_DATE_RAW": "",
      "LAT": 37.2065035,
      "LNG": 127.1019082,
      "DONG": "동탄7동",
      "BAG_TYPES": [
        "소각용 50L",
        "소각용 75L"
      ],
      "SALE_DATE": "20260416"
    },
    {
      "SHOP_NAME": "GS25 동탄빌리지",
      "SAUP_ADDR": "경기도 화성시 동탄대로21가길 12(영천동)",
      "SAUP_PHONE": "010-8384-2380",
      "SALE_DATE_FMT": "2026-04-16",
      "SALE_DATE_RAW": "",
      "LAT": 37.2064623,
      "LNG": 127.0979085,
      "DONG": "동탄7동",
      "BAG_TYPES": [
        "소각용 50L",
        "소각용 75L"
      ],
      "SALE_DATE": "20260416"
    },
    {
      "SHOP_NAME": "GS25 뉴동탄영천점",
      "SAUP_ADDR": "경기도 화성시 지산2길 3-1 (영천동)",
      "SAUP_PHONE": "010-8291-1789",
      "SALE_DATE_FMT": "2026-04-16",
      "SALE_DATE_RAW": "",
      "LAT": 37.2064052,
      "LNG": 127.1129396,
      "DONG": "동탄7동",
      "BAG_TYPES": [
        "소각용 50L",
        "소각용 75L"
      ],
      "SALE_DATE": "20260416"
    },
    {
      "SHOP_NAME": "GS25 동탄주공점",
      "SAUP_ADDR": "동탄순환대로24길101",
      "SAUP_PHONE": "010-4007-9954",
      "SALE_DATE_FMT": "2026-04-09",
      "SALE_DATE_RAW": "",
      "LAT": 37.2060849,
      "LNG": 127.1219542,
      "DONG": "동탄7동",
      "BAG_TYPES": [
        "소각용 50L",
        "소각용 75L"
      ],
      "SALE_DATE": "20260409"
    },
    {
      "SHOP_NAME": "씨유 동탄부영사랑점",
      "SAUP_ADDR": "동탄대로 24길 199, 101호",
      "SAUP_PHONE": "010-3342-1141",
      "SALE_DATE_FMT": "2026-04-16",
      "SALE_DATE_RAW": "",
      "LAT": 37.2059583,
      "LNG": 127.1169264,
      "DONG": "동탄7동",
      "BAG_TYPES": [
        "소각용 50L",
        "소각용 75L"
      ],
      "SALE_DATE": "20260416"
    },
    {
      "SHOP_NAME": "GS25 동탄4단지점",
      "SAUP_ADDR": "경기도 화성시 동탄순환대로24길 101 (영천동, 동탄2LH4단지) 101,102호",
      "SAUP_PHONE": "010-3448-2492",
      "SALE_DATE_FMT": "2026-04-16",
      "SALE_DATE_RAW": "",
      "LAT": 37.2059507,
      "LNG": 127.1214664,
      "DONG": "동탄7동",
      "BAG_TYPES": [
        "소각용 50L",
        "소각용 75L"
      ],
      "SALE_DATE": "20260416"
    },
    {
      "SHOP_NAME": "쿱스토어경남 화성영천점(주)",
      "SAUP_ADDR": "화성시 지산2길 11-12",
      "SAUP_PHONE": "010-3666-0858",
      "SALE_DATE_FMT": "2026-02-19",
      "SALE_DATE_RAW": "",
      "LAT": 37.2059107,
      "LNG": 127.114489,
      "DONG": "동탄7동",
      "BAG_TYPES": [
        "소각용 50L"
      ],
      "SALE_DATE": "20260219"
    },
    {
      "SHOP_NAME": "GS더프레시 동탄한백점",
      "SAUP_ADDR": "경기도 화성시 지산2길 34-8 (영천동) 112호",
      "SAUP_PHONE": "010-2392-3195",
      "SALE_DATE_FMT": "2026-03-30",
      "SALE_DATE_RAW": "",
      "LAT": 37.2050926,
      "LNG": 127.1157735,
      "DONG": "동탄7동",
      "BAG_TYPES": [
        "소각용 50L",
        "소각용 75L"
      ],
      "SALE_DATE": "20260330"
    },
    {
      "SHOP_NAME": "씨유 뉴동탄강산프라자점",
      "SAUP_ADDR": "경기도 화성시 동탄순환대로29길 62 (영천동) 103,104호",
      "SAUP_PHONE": "010-3685-7923",
      "SALE_DATE_FMT": "2026-04-16",
      "SALE_DATE_RAW": "",
      "LAT": 37.2044804,
      "LNG": 127.1089669,
      "DONG": "동탄7동",
      "BAG_TYPES": [
        "소각용 50L",
        "소각용 75L"
      ],
      "SALE_DATE": "20260416"
    },
    {
      "SHOP_NAME": "씨유 동탄치동천로점",
      "SAUP_ADDR": "동탄치동천로2길 3-19,1층",
      "SAUP_PHONE": "010-7529-7429",
      "SALE_DATE_FMT": "2026-04-16",
      "SALE_DATE_RAW": "",
      "LAT": 37.2037673,
      "LNG": 127.1253834,
      "DONG": "동탄7동",
      "BAG_TYPES": [
        "소각용 50L",
        "소각용 75L"
      ],
      "SALE_DATE": "20260416"
    },
    {
      "SHOP_NAME": "세븐일레븐 동탄푸른점",
      "SAUP_ADDR": "경기도 화성시 동탄치동천로2길 3-53 (영천동) 101,103호",
      "SAUP_PHONE": "010-7535-5172",
      "SALE_DATE_FMT": "2026-04-16",
      "SALE_DATE_RAW": "",
      "LAT": 37.2026155,
      "LNG": 127.127244,
      "DONG": "동탄7동",
      "BAG_TYPES": [
        "소각용 50L",
        "소각용 75L"
      ],
      "SALE_DATE": "20260416"
    },
    {
      "SHOP_NAME": "이마트24 R동탄금강점",
      "SAUP_ADDR": "경기도 화성시 동탄순환대로20길 45 (목동, 동탄 금강펜테리움 센트럴파크Ⅳ) 106,107호",
      "SAUP_PHONE": "010-2497-3096",
      "SALE_DATE_FMT": "2026-04-16",
      "SALE_DATE_RAW": "",
      "LAT": 37.1897898,
      "LNG": 127.1287394,
      "DONG": "동탄7동",
      "BAG_TYPES": [
        "소각용 50L",
        "소각용 75L"
      ],
      "SALE_DATE": "20260416"
    },
    {
      "SHOP_NAME": "GS더프레시 동탄한신",
      "SAUP_ADDR": "경기도 화성시 동탄순환대로20길 70(목동, 한신더휴) 111호",
      "SAUP_PHONE": "010-8965-2586",
      "SALE_DATE_FMT": "2026-04-09",
      "SALE_DATE_RAW": "",
      "LAT": 37.1865973,
      "LNG": 127.1252212,
      "DONG": "동탄7동",
      "BAG_TYPES": [
        "소각용 50L",
        "소각용 75L"
      ],
      "SALE_DATE": "20260409"
    },
    {
      "SHOP_NAME": "씨유 동탄힐스테이트점",
      "SAUP_ADDR": "경기도 화성시 동탄순환대로19길 59 (목동, 힐스테이트 동탄) 402동 130,131호",
      "SAUP_PHONE": "010-4033-2220",
      "SALE_DATE_FMT": "2026-04-16",
      "SALE_DATE_RAW": "",
      "LAT": 37.1846113,
      "LNG": 127.1211081,
      "DONG": "동탄7동",
      "BAG_TYPES": [
        "소각용 50L",
        "소각용 75L"
      ],
      "SALE_DATE": "20260416"
    },
    {
      "SHOP_NAME": "GS25 르파비스점",
      "SAUP_ADDR": "경기도 화성시 동탄순환대로20길 115 (목동, 르파비스) 상가 102호,103호",
      "SAUP_PHONE": "010-6414-6830",
      "SALE_DATE_FMT": "2026-04-16",
      "SALE_DATE_RAW": "",
      "LAT": 37.1836794,
      "LNG": 127.1260423,
      "DONG": "동탄7동",
      "BAG_TYPES": [
        "소각용 50L",
        "소각용 75L"
      ],
      "SALE_DATE": "20260416"
    },
    {
      "SHOP_NAME": "씨유 동탄리더스타워점",
      "SAUP_ADDR": "경기도 화성시 동탄신리천로 407 (목동) 103호",
      "SAUP_PHONE": "010-9072-3788",
      "SALE_DATE_FMT": "2026-04-16",
      "SALE_DATE_RAW": "",
      "LAT": 37.182829,
      "LNG": 127.123547,
      "DONG": "동탄7동",
      "BAG_TYPES": [
        "소각용 50L",
        "소각용 75L"
      ],
      "SALE_DATE": "20260416"
    },
    {
      "SHOP_NAME": "씨유 동탄베스트점",
      "SAUP_ADDR": "경기도 화성시 동탄기흥로257번나길 14-10 (방교동) 1층전체(방교동)",
      "SAUP_PHONE": "010-7617-0514",
      "SALE_DATE_FMT": "2026-04-15",
      "SALE_DATE_RAW": "",
      "LAT": 37.1822804,
      "LNG": 127.0889718,
      "DONG": "동탄7동",
      "BAG_TYPES": [
        "소각용 50L",
        "소각용 75L"
      ],
      "SALE_DATE": "20260415"
    },
    {
      "SHOP_NAME": "씨유 동탄M메디컬",
      "SAUP_ADDR": "경기도 화성시 동탄신리천로 408(목동) 1층 109호",
      "SAUP_PHONE": "010-5590-7655",
      "SALE_DATE_FMT": "2026-04-16",
      "SALE_DATE_RAW": "",
      "LAT": 37.1820308,
      "LNG": 127.1239522,
      "DONG": "동탄7동",
      "BAG_TYPES": [
        "소각용 50L",
        "소각용 75L"
      ],
      "SALE_DATE": "20260416"
    },
    {
      "SHOP_NAME": "GS25 동탄포레점",
      "SAUP_ADDR": "경기도 화성시 동탄구 동탄신리천로1길 74 (목동, 호반베르디움 센트럴포레) 1930동 104호",
      "SAUP_PHONE": "010-4544-0962",
      "SALE_DATE_FMT": "2026-04-16",
      "SALE_DATE_RAW": "",
      "LAT": 37.1807423,
      "LNG": 127.117244,
      "DONG": "동탄7동",
      "BAG_TYPES": [
        "소각용 50L",
        "소각용 75L"
      ],
      "SALE_DATE": "20260416"
    },
    {
      "SHOP_NAME": "GS25 동탄대박점",
      "SAUP_ADDR": "경기도 화성시 동탄순환대로 249(산척동) 103호",
      "SAUP_PHONE": "010-9388-0726",
      "SALE_DATE_FMT": "2026-04-16",
      "SALE_DATE_RAW": "",
      "LAT": 37.1699193,
      "LNG": 127.1182643,
      "DONG": "동탄7동",
      "BAG_TYPES": [
        "소각용 50L",
        "소각용 75L"
      ],
      "SALE_DATE": "20260416"
    },
    {
      "SHOP_NAME": "하모니식자재마트",
      "SAUP_ADDR": "지산1길 25-5, 101호",
      "SAUP_PHONE": "010-5897-5600",
      "SALE_DATE_FMT": "2026-04-16",
      "SALE_DATE_RAW": "",
      "LAT": 0.0,
      "LNG": 0.0,
      "DONG": "동탄7동",
      "BAG_TYPES": [
        "소각용 50L",
        "소각용 75L"
      ],
      "SALE_DATE": "20260416"
    },
    {
      "SHOP_NAME": "GS25 동탄장지점",
      "SAUP_ADDR": "경기도 화성시 동탄대로2길 131 (장지동)",
      "SAUP_PHONE": "010-7180-8744",
      "SALE_DATE_FMT": "2026-04-15",
      "SALE_DATE_RAW": "",
      "LAT": 37.1554906,
      "LNG": 127.117853,
      "DONG": "동탄8동",
      "BAG_TYPES": [
        "소각용 50L",
        "소각용 75L"
      ],
      "SALE_DATE": "20260415"
    },
    {
      "SHOP_NAME": "GS더프레시 동탄서연점",
      "SAUP_ADDR": "경기도 화성시 동탄대로4길 53 (장지동) 109~116호",
      "SAUP_PHONE": "010-6428-2168",
      "SALE_DATE_FMT": "2026-04-16",
      "SALE_DATE_RAW": "",
      "LAT": 37.161829,
      "LNG": 127.1118403,
      "DONG": "동탄8동",
      "BAG_TYPES": [
        "소각용 50L",
        "소각용 75L"
      ],
      "SALE_DATE": "20260416"
    },
    {
      "SHOP_NAME": "씨유 동탄자이점",
      "SAUP_ADDR": "경기도 화성시 동탄장지천5길 16-10 (장지동)",
      "SAUP_PHONE": "010-3956-1202",
      "SALE_DATE_FMT": "2026-04-15",
      "SALE_DATE_RAW": "",
      "LAT": 37.1589595,
      "LNG": 127.1060294,
      "DONG": "동탄8동",
      "BAG_TYPES": [
        "소각용 50L",
        "소각용 75L"
      ],
      "SALE_DATE": "20260415"
    },
    {
      "SHOP_NAME": "GS25 동탄늘푸른점",
      "SAUP_ADDR": "경기도 화성시 동탄대로3길 33 (장지동, 동탄레이크자연앤푸르지오) 상가동 102호, 103호",
      "SAUP_PHONE": "010-3255-2721",
      "SALE_DATE_FMT": "2026-04-09",
      "SALE_DATE_RAW": "",
      "LAT": 37.1641381,
      "LNG": 127.1027273,
      "DONG": "동탄8동",
      "BAG_TYPES": [
        "소각용 50L",
        "소각용 75L"
      ],
      "SALE_DATE": "20260409"
    },
    {
      "SHOP_NAME": "세븐일레븐 루나갤러리점",
      "SAUP_ADDR": "경기도 화성시 동탄대로5길 32(송동) 128호",
      "SAUP_PHONE": "010-6204-6282",
      "SALE_DATE_FMT": "2026-04-09",
      "SALE_DATE_RAW": "",
      "LAT": 37.1669842,
      "LNG": 127.10393,
      "DONG": "동탄8동",
      "BAG_TYPES": [
        "소각용 50L"
      ],
      "SALE_DATE": "20260409"
    },
    {
      "SHOP_NAME": "GS25 동탄호수자이점",
      "SAUP_ADDR": "경기도 화성시 동탄구 동탄순환대로8길 11 (장지동, 동탄호수공원 자연&자이) 101호",
      "SAUP_PHONE": "010-9577-0506",
      "SALE_DATE_FMT": "2026-04-16",
      "SALE_DATE_RAW": "",
      "LAT": 37.1646593,
      "LNG": 127.1127296,
      "DONG": "동탄8동",
      "BAG_TYPES": [
        "소각용 50L"
      ],
      "SALE_DATE": "20260416"
    },
    {
      "SHOP_NAME": "GS25 호수아이파크",
      "SAUP_ADDR": "경기 화성시 동탄순환대로8길 16, 상가동 101호 102호",
      "SAUP_PHONE": "010-4303-5707",
      "SALE_DATE_FMT": "2026-04-16",
      "SALE_DATE_RAW": "",
      "LAT": 37.1646294,
      "LNG": 127.1087169,
      "DONG": "동탄8동",
      "BAG_TYPES": [
        "소각용 50L",
        "소각용 75L"
      ],
      "SALE_DATE": "20260416"
    },
    {
      "SHOP_NAME": "GS25 동탄호수계룡점",
      "SAUP_ADDR": "경기도 화성시 동탄대로3길 34(장지동, 동탄 호수공원 리슈빌) 5,6호",
      "SAUP_PHONE": "010-6323-8384",
      "SALE_DATE_FMT": "2026-04-16",
      "SALE_DATE_RAW": "",
      "LAT": 37.1644799,
      "LNG": 127.1050984,
      "DONG": "동탄8동",
      "BAG_TYPES": [
        "소각용 50L",
        "소각용 75L"
      ],
      "SALE_DATE": "20260416"
    },
    {
      "SHOP_NAME": "GS25 동탄이스트점",
      "SAUP_ADDR": "경기도 화성시 동탄순환대로2길 13 (장지동, 동탄2엘에이치행복주택28단지) 상가동 103호",
      "SAUP_PHONE": "010-2098-2492",
      "SALE_DATE_FMT": "2026-04-15",
      "SALE_DATE_RAW": "",
      "LAT": 37.1636244,
      "LNG": 127.0944705,
      "DONG": "동탄8동",
      "BAG_TYPES": [
        "소각용 50L",
        "소각용 75L"
      ],
      "SALE_DATE": "20260415"
    },
    {
      "SHOP_NAME": "GS25 동탄이편한점",
      "SAUP_ADDR": "경기도 화성시 동탄순환대로8길 27 (장지동, 동탄레이크파크 자연& e편한세상) 1동 B101,102호",
      "SAUP_PHONE": "010-5477-0572",
      "SALE_DATE_FMT": "2026-04-16",
      "SALE_DATE_RAW": "",
      "LAT": 37.1628644,
      "LNG": 127.1127367,
      "DONG": "동탄8동",
      "BAG_TYPES": [
        "소각용 50L",
        "소각용 75L"
      ],
      "SALE_DATE": "20260416"
    },
    {
      "SHOP_NAME": "씨유 동탄레이크파크점",
      "SAUP_ADDR": "경기도 화성시 동탄순환대로8길 27 (장지동, 동탄레이크파크 자연& e편한세상) 상가2동 B106호",
      "SAUP_PHONE": "010-7138-5535",
      "SALE_DATE_FMT": "2026-04-16",
      "SALE_DATE_RAW": "",
      "LAT": 37.1628644,
      "LNG": 127.1127367,
      "DONG": "동탄8동",
      "BAG_TYPES": [
        "소각용 50L",
        "소각용 75L"
      ],
      "SALE_DATE": "20260416"
    },
    {
      "SHOP_NAME": "GS25 레이크반도점",
      "SAUP_ADDR": "경기도 화성시 동탄대로4길 95 (장지동, 레이크 반도유보라 아이비파크 9.0) 3418동 B106~109호",
      "SAUP_PHONE": "010-5205-0324",
      "SALE_DATE_FMT": "2026-04-16",
      "SALE_DATE_RAW": "",
      "LAT": 37.1627521,
      "LNG": 127.117278,
      "DONG": "동탄8동",
      "BAG_TYPES": [
        "소각용 50L",
        "소각용 75L"
      ],
      "SALE_DATE": "20260416"
    },
    {
      "SHOP_NAME": "이마트24 R동탄아이파크점",
      "SAUP_ADDR": "경기도 화성시 동탄대로4길 123 (장지동, 동탄2아이파크) 103,104호",
      "SAUP_PHONE": "010-5204-2873",
      "SALE_DATE_FMT": "2026-04-16",
      "SALE_DATE_RAW": "",
      "LAT": 37.1620251,
      "LNG": 127.1205881,
      "DONG": "동탄8동",
      "BAG_TYPES": [
        "소각용 50L",
        "소각용 75L"
      ],
      "SALE_DATE": "20260416"
    },
    {
      "SHOP_NAME": "GS25 동탄엘크루점",
      "SAUP_ADDR": "경기도 화성시 동탄대로1길 92 (장지동) 101~103호",
      "SAUP_PHONE": "010-5295-9829",
      "SALE_DATE_FMT": "2026-03-18",
      "SALE_DATE_RAW": "",
      "LAT": 37.1619868,
      "LNG": 127.0940516,
      "DONG": "동탄8동",
      "BAG_TYPES": [
        "소각용 50L",
        "소각용 75L"
      ],
      "SALE_DATE": "20260318"
    },
    {
      "SHOP_NAME": "세븐일레븐 동탄어울림점",
      "SAUP_ADDR": "경기도 화성시 동탄대로1길 32 (장지동, 금호어울림레이크2차) 상가동 101호, 102호",
      "SAUP_PHONE": "010-5804-9630",
      "SALE_DATE_FMT": "2026-04-15",
      "SALE_DATE_RAW": "",
      "LAT": 37.1619633,
      "LNG": 127.1017469,
      "DONG": "동탄8동",
      "BAG_TYPES": [
        "소각용 50L"
      ],
      "SALE_DATE": "20260415"
    },
    {
      "SHOP_NAME": "씨유 동탄하우스디",
      "SAUP_ADDR": "경기도 화성시 동탄대로1길 66(장지동, LH동탄호수 하우스디) 104,105호",
      "SAUP_PHONE": "010-5290-9116",
      "SALE_DATE_FMT": "2026-04-08",
      "SALE_DATE_RAW": "",
      "LAT": 37.1619516,
      "LNG": 127.0971393,
      "DONG": "동탄8동",
      "BAG_TYPES": [
        "소각용 50L",
        "소각용 75L"
      ],
      "SALE_DATE": "20260408"
    },
    {
      "SHOP_NAME": "씨유 동탄서연점",
      "SAUP_ADDR": "경기도 화성시 동탄대로4길 18 (장지동, 동탄호수 우남 더 테라스) 106~107호",
      "SAUP_PHONE": "010-8735-8542",
      "SALE_DATE_FMT": "2026-03-26",
      "SALE_DATE_RAW": "",
      "LAT": 37.161641,
      "LNG": 127.107721,
      "DONG": "동탄8동",
      "BAG_TYPES": [
        "소각용 50L",
        "소각용 75L"
      ],
      "SALE_DATE": "20260326"
    },
    {
      "SHOP_NAME": "씨유 동탄아이원점",
      "SAUP_ADDR": "경기도 화성시 동탄대로1길 20(장지동) 상가동 1층 101호, 102호",
      "SAUP_PHONE": "010-3363-1430",
      "SALE_DATE_FMT": "2026-04-15",
      "SALE_DATE_RAW": "",
      "LAT": 37.1612522,
      "LNG": 127.1038814,
      "DONG": "동탄8동",
      "BAG_TYPES": [
        "소각용 50L",
        "소각용 75L"
      ],
      "SALE_DATE": "20260415"
    },
    {
      "SHOP_NAME": "씨유 동탄현대점",
      "SAUP_ADDR": "경기도 화성시 동탄대로4길 136-32(장지동) 1층",
      "SAUP_PHONE": "010-4685-3117",
      "SALE_DATE_FMT": "2026-04-16",
      "SALE_DATE_RAW": "",
      "LAT": 37.1600489,
      "LNG": 127.1198884,
      "DONG": "동탄8동",
      "BAG_TYPES": [
        "소각용 50L",
        "소각용 75L"
      ],
      "SALE_DATE": "20260416"
    },
    {
      "SHOP_NAME": "한신문구사",
      "SAUP_ADDR": "경기도 화성시 동탄대로47번길 9(장지동)",
      "SAUP_PHONE": "010-8250-4558",
      "SALE_DATE_FMT": "2026-03-25",
      "SALE_DATE_RAW": "",
      "LAT": 37.1593975,
      "LNG": 127.102885,
      "DONG": "동탄8동",
      "BAG_TYPES": [
        "소각용 50L",
        "소각용 75L"
      ],
      "SALE_DATE": "20260325"
    },
    {
      "SHOP_NAME": "풍성철물건재안전",
      "SAUP_ADDR": "경기도 화성시 장지로 30 (장지동)",
      "SAUP_PHONE": "010-5169-4622",
      "SALE_DATE_FMT": "2026-04-15",
      "SALE_DATE_RAW": "",
      "LAT": 37.1557996,
      "LNG": 127.115889,
      "DONG": "동탄8동",
      "BAG_TYPES": [
        "소각용 50L",
        "소각용 75L"
      ],
      "SALE_DATE": "20260415"
    },
    {
      "SHOP_NAME": "씨유 장지희망점",
      "SAUP_ADDR": "경기도 화성시 장지안길54번길 41 (장지동)",
      "SAUP_PHONE": "010-3445-6766",
      "SALE_DATE_FMT": "2026-04-15",
      "SALE_DATE_RAW": "",
      "LAT": 37.1553331,
      "LNG": 127.1187175,
      "DONG": "동탄8동",
      "BAG_TYPES": [
        "소각용 50L",
        "소각용 75L"
      ],
      "SALE_DATE": "20260415"
    },
    {
      "SHOP_NAME": "동탄농협 하나로마트 장지점",
      "SAUP_ADDR": "경기도 화성시 장지로 12 (장지동)",
      "SAUP_PHONE": "010-5744-3247",
      "SALE_DATE_FMT": "2026-04-08",
      "SALE_DATE_RAW": "",
      "LAT": 37.1553258,
      "LNG": 127.1178327,
      "DONG": "동탄8동",
      "BAG_TYPES": [
        "소각용 50L",
        "소각용 75L"
      ],
      "SALE_DATE": "20260408"
    },
    {
      "SHOP_NAME": "가락공판장 해나온 동탄점",
      "SAUP_ADDR": "경기도 화성시 경기동로 484 (장지동) 1층",
      "SAUP_PHONE": "010-2277-2800",
      "SALE_DATE_FMT": "2026-04-15",
      "SALE_DATE_RAW": "",
      "LAT": 37.151297,
      "LNG": 127.1235533,
      "DONG": "동탄8동",
      "BAG_TYPES": [
        "소각용 50L",
        "소각용 75L"
      ],
      "SALE_DATE": "20260415"
    },
    {
      "SHOP_NAME": "GS25 동탄방교1리점",
      "SAUP_ADDR": "경기도 화성시 동탄기흥로 31 (방교동) 102호",
      "SAUP_PHONE": "010-7935-7271",
      "SALE_DATE_FMT": "2026-03-18",
      "SALE_DATE_RAW": "",
      "LAT": 37.1638404,
      "LNG": 127.0869244,
      "DONG": "동탄8동",
      "BAG_TYPES": [
        "소각용 75L"
      ],
      "SALE_DATE": "20260318"
    },
    {
      "SHOP_NAME": "씨유 동탄신동스마일점",
      "SAUP_ADDR": "경기도 화성시 동탄신리천로8길 15 (신동, 동탄2엘에이치40단지) S001동 1,2호",
      "SAUP_PHONE": "010-3235-6731",
      "SALE_DATE_FMT": "2026-04-16",
      "SALE_DATE_RAW": "",
      "LAT": 37.1756271,
      "LNG": 127.1415841,
      "DONG": "동탄9동",
      "BAG_TYPES": [
        "소각용 50L",
        "소각용 75L"
      ],
      "SALE_DATE": "20260416"
    },
    {
      "SHOP_NAME": "씨유 신동파크릭스점",
      "SAUP_ADDR": "경기도 화성시 동탄신리천로5길 111 (신동, 동탄 파크릭스 A51-2BL 아파트) 101호",
      "SAUP_PHONE": "010-3527-9692",
      "SALE_DATE_FMT": "2026-04-16",
      "SALE_DATE_RAW": "",
      "LAT": 37.1901475,
      "LNG": 127.1415468,
      "DONG": "동탄9동",
      "BAG_TYPES": [
        "소각용 50L",
        "소각용 75L"
      ],
      "SALE_DATE": "20260416"
    },
    {
      "SHOP_NAME": "GS25 나눔동탄아테라점",
      "SAUP_ADDR": "경기도 화성시 동탄구 동탄신리천로3길 59 (신동, 동탄 아테라 파밀리에) 109,110호",
      "SAUP_PHONE": "010-5313-0573",
      "SALE_DATE_FMT": "2026-04-16",
      "SALE_DATE_RAW": "",
      "LAT": 37.184248,
      "LNG": 127.1343789,
      "DONG": "동탄9동",
      "BAG_TYPES": [
        "소각용 50L",
        "소각용 75L"
      ],
      "SALE_DATE": "20260416"
    },
    {
      "SHOP_NAME": "GS25 신동포레점",
      "SAUP_ADDR": "경기도 화성시 동탄신리천로2길 66 (신동, 동탄2 신동포레 경기행복주택) 115호",
      "SAUP_PHONE": "010-3045-5627",
      "SALE_DATE_FMT": "2026-04-16",
      "SALE_DATE_RAW": "",
      "LAT": 37.1757157,
      "LNG": 127.1273151,
      "DONG": "동탄9동",
      "BAG_TYPES": [
        "소각용 50L",
        "소각용 75L"
      ],
      "SALE_DATE": "20260416"
    },
    {
      "SHOP_NAME": "씨유 신동힐스포레점",
      "SAUP_ADDR": "경기도 화성시 동탄신리천로4길 47 (신동, 힐스테이트 동탄포레)",
      "SAUP_PHONE": "010-3552-3139",
      "SALE_DATE_FMT": "2026-04-16",
      "SALE_DATE_RAW": "",
      "LAT": 37.1751528,
      "LNG": 127.1356047,
      "DONG": "동탄9동",
      "BAG_TYPES": [
        "소각용 50L",
        "소각용 75L"
      ],
      "SALE_DATE": "20260416"
    },
    {
      "SHOP_NAME": "동탄레인보우(주)",
      "SAUP_ADDR": "경기도 화성시 동탄구 동탄신리천로8길 46 (신동)",
      "SAUP_PHONE": "010-4734-5899",
      "SALE_DATE_FMT": "2026-04-16",
      "SALE_DATE_RAW": "",
      "LAT": 37.1735259,
      "LNG": 127.1390648,
      "DONG": "동탄9동",
      "BAG_TYPES": [
        "소각용 50L",
        "소각용 75L"
      ],
      "SALE_DATE": "20260416"
    },
    {
      "SHOP_NAME": "씨유 동탄파크릭스점",
      "SAUP_ADDR": "화성시 신동185 동탄파크릭스52BL상가 109호",
      "SAUP_PHONE": "010-5525-0422",
      "SALE_DATE_FMT": "2026-04-16",
      "SALE_DATE_RAW": "",
      "LAT": 0.0,
      "LNG": 0.0,
      "DONG": "동탄9동",
      "BAG_TYPES": [
        "소각용 50L",
        "소각용 75L"
      ],
      "SALE_DATE": "20260416"
    },
    {
      "SHOP_NAME": "GS더프레시 동탄파크릭스점",
      "SAUP_ADDR": "신동 185 동탄파크릭스523BL 단지내상가 1~5",
      "SAUP_PHONE": "010-4841-9231",
      "SALE_DATE_FMT": "2026-03-26",
      "SALE_DATE_RAW": "",
      "LAT": 0.0,
      "LNG": 0.0,
      "DONG": "동탄9동",
      "BAG_TYPES": [
        "소각용 50L",
        "소각용 75L"
      ],
      "SALE_DATE": "20260326"
    },